[
    {
        "id": 18601,
        "name": "CommBank Stadium",
        "city": "Sydney",
        "capacity": 30000,
        "latitude": -33.8086686,
        "longitude": 151.0001317
    },
    {
        "id": 128,
        "name": "HBF Park",
        "city": "Perth",
        "capacity": 20500,
        "latitude": -31.9457767,
        "longitude": 115.8698613
    },
    {
        "id": 20806,
        "name": "Industree Group Stadium",
        "city": "Gosford",
        "capacity": 21379,
        "latitude": -33.4283052,
        "longitude": 151.3380731
    },
    {
        "id": 130,
        "name": "Sky Stadium",
        "city": "Wellington",
        "capacity": 37034,
        "latitude": -41.2730489,
        "longitude": 174.7858977
    },
    {
        "id": 20808,
        "name": "Allianz Stadium",
        "city": "Sydney",
        "capacity": 45500,
        "latitude": -33.889067,
        "longitude": 151.225364
    },
    {
        "id": 20807,
        "name": "AAMI Park",
        "city": "Melbourne",
        "capacity": 30050,
        "latitude": -37.8244279,
        "longitude": 144.9844097
    },
    {
        "id": 127,
        "name": "McDonald Jones Stadium",
        "city": "Newcastle",
        "capacity": 33000,
        "latitude": -32.9186052,
        "longitude": 151.7261264
    },
    {
        "id": 124,
        "name": "Suncorp Stadium",
        "city": "Brisbane",
        "capacity": 52500,
        "latitude": -27.4647989,
        "longitude": 153.0096108
    },
    {
        "id": 123,
        "name": "Coopers Stadium",
        "city": "Adelaide",
        "capacity": 17000,
        "latitude": -34.9073954,
        "longitude": 138.5689409
    },
    {
        "id": 20811,
        "name": "Campbelltown Sports Stadium",
        "city": "Sydney",
        "capacity": 21000,
        "latitude": -34.0503899,
        "longitude": 150.8337665
    },
    {
        "id": 21101,
        "name": "Go Media Stadium",
        "city": "Auckland",
        "capacity": 30000,
        "latitude": -36.9182825,
        "longitude": 174.8123959
    },
    {
        "id": 2546,
        "name": "Lambert Park",
        "city": "Sydney",
        "capacity": 7500,
        "latitude": -33.8842775,
        "longitude": 151.1467451
    },
    {
        "id": 20810,
        "name": "Landen Stadium",
        "city": "Blacktown",
        "capacity": 7500,
        "latitude": -33.7672624,
        "longitude": 150.9399498
    },
    {
        "id": 2552,
        "name": "Illinden Sports Centre",
        "city": "Sydney",
        "capacity": 5000,
        "latitude": -33.9635431,
        "longitude": 151.1438246
    },
    {
        "id": 2563,
        "name": "Steve Woodcock Sports Centre",
        "city": "Adelaide",
        "capacity": 3078,
        "latitude": -34.8841068,
        "longitude": 138.6913371
    },
    {
        "id": 2574,
        "name": "Olympic Park (Village)",
        "city": "Melbourne",
        "capacity": 12000,
        "latitude": -37.7397869,
        "longitude": 145.0343179
    },
    {
        "id": 19574,
        "name": "Hume City Stadium",
        "city": "Melbourne",
        "capacity": 5000,
        "latitude": -37.66524709999999,
        "longitude": 144.9156077
    },
    {
        "id": 2578,
        "name": "Jack Edwards Reserve",
        "city": "Melbourne",
        "capacity": 5200,
        "latitude": -37.9060971,
        "longitude": 145.0986198
    },
    {
        "id": 2581,
        "name": "Lakeside Stadium",
        "city": "Melbourne",
        "capacity": 15000,
        "latitude": -37.840334,
        "longitude": 144.9652943
    },
    {
        "id": 7050,
        "name": "Smith Partners Stadium",
        "city": "Adelaide",
        "capacity": 3000,
        "latitude": -34.8175093,
        "longitude": 138.6952078
    },
    {
        "id": 7155,
        "name": "Jack McLaughlan Oval",
        "city": "Newcastle",
        "capacity": 4297,
        "latitude": -32.9253997,
        "longitude": 151.6220092
    },
    {
        "id": 7158,
        "name": "Arthur Edden Oval",
        "city": "Newcastle",
        "capacity": 2000,
        "latitude": -32.9184832,
        "longitude": 151.7194932
    },
    {
        "id": 19436,
        "name": "Imperial Corp Stadium 1",
        "city": "Brisbane",
        "capacity": 10000,
        "latitude": -27.4399772,
        "longitude": 153.0108747
    },
    {
        "id": 22624,
        "name": "Luxury Paints Stadium",
        "city": "Brisbane",
        "capacity": 5000,
        "latitude": -27.5925041,
        "longitude": 152.9496215
    },
    {
        "id": 7170,
        "name": "Goodwin Park",
        "city": "Brisbane",
        "capacity": 1500,
        "latitude": -27.5083333,
        "longitude": 153.0136111
    },
    {
        "id": 2557,
        "name": "Larrakia Park",
        "city": "Darwin",
        "capacity": 6000,
        "latitude": -12.3969886,
        "longitude": 130.8802112
    },
    {
        "id": 10556,
        "name": "KGV Football Park",
        "city": "Hobart",
        "capacity": 4000,
        "latitude": -42.8290725,
        "longitude": 147.2788422
    },
    {
        "id": 11608,
        "name": "Christie Park",
        "city": "Macquarie Park",
        "capacity": 1000,
        "latitude": -33.7704536,
        "longitude": 151.1187861
    },
    {
        "id": 12740,
        "name": "Kaleen Enclosed 1",
        "city": "Kaleen",
        "capacity": 1000,
        "latitude": -35.2247735,
        "longitude": 149.1110238
    },
    {
        "id": 19477,
        "name": "RedStar Arena A",
        "city": "Perth",
        "capacity": 1000,
        "latitude": -31.7539278,
        "longitude": 115.7729548
    },
    {
        "id": 19584,
        "name": "Kingsway Reserve A",
        "city": "Perth",
        "capacity": 2000,
        "latitude": -31.8168769,
        "longitude": 115.832303
    },
    {
        "id": 2535,
        "name": "Wolter Park",
        "city": "Brisbane",
        "capacity": 1200,
        "latitude": -27.3447258,
        "longitude": 152.9800962
    },
    {
        "id": 21490,
        "name": "Kevin Bartlett Reserve",
        "city": "Melbourne",
        "capacity": 5000,
        "latitude": -37.8307033,
        "longitude": 145.0230552
    },
    {
        "id": 2534,
        "name": "Ron Proud Field 1",
        "city": "Acacia Ridge",
        "capacity": 1000,
        "latitude": -27.5767855,
        "longitude": 153.0198073
    },
    {
        "id": 2537,
        "name": "Brisbane Knights Sports Complex 1",
        "city": "Rocklea",
        "capacity": 1000,
        "latitude": -27.5511,
        "longitude": 153.0043205
    },
    {
        "id": 2539,
        "name": "Atthows Park",
        "city": "Darra",
        "capacity": 1000,
        "latitude": -27.5599573,
        "longitude": 152.9456417
    },
    {
        "id": 2541,
        "name": "Bob Brock Park",
        "city": "Brisbane",
        "capacity": 1000,
        "latitude": -27.2328052,
        "longitude": 152.9787999
    },
    {
        "id": 2545,
        "name": "St. Lucia Campus Oval 3",
        "city": "Brisbane",
        "capacity": 1000,
        "latitude": -27.4936631,
        "longitude": 153.0067317
    },
    {
        "id": 6276,
        "name": "Albert Bishop Park 2",
        "city": "Nundah",
        "capacity": 1000,
        "latitude": -27.4047681,
        "longitude": 153.0709094
    },
    {
        "id": 7467,
        "name": "Dittmer Park",
        "city": "Brisbane",
        "capacity": 2500,
        "latitude": -27.5517309,
        "longitude": 153.0787863
    },
    {
        "id": 19399,
        "name": "Kippen Park",
        "city": "Goodna",
        "capacity": 1000,
        "latitude": -27.6137643,
        "longitude": 152.906647
    },
    {
        "id": 19400,
        "name": "McCook Park",
        "city": "Newmarket",
        "capacity": 1000,
        "latitude": -27.436459,
        "longitude": 153.0123205
    },
    {
        "id": 20496,
        "name": "Prentice Park",
        "city": "Lutwyche",
        "capacity": 1000,
        "latitude": -27.421798,
        "longitude": 153.0316852
    },
    {
        "id": 20497,
        "name": "Talobilla Park 1",
        "city": "Kippa-Ring",
        "capacity": 1000,
        "latitude": -27.2195491,
        "longitude": 153.0896223
    },
    {
        "id": 21528,
        "name": "Woodcrest State College 1",
        "city": "Springfield",
        "capacity": 1000,
        "latitude": -27.6589167,
        "longitude": 152.9214716
    },
    {
        "id": 1946,
        "name": "Kambah 2",
        "city": "Canberra",
        "capacity": 1000,
        "latitude": -35.3900733,
        "longitude": 149.0648547
    },
    {
        "id": 1940,
        "name": "Deakin Stadium",
        "city": "Canberra",
        "capacity": 1500,
        "latitude": -35.3139112,
        "longitude": 149.1054314
    },
    {
        "id": 1941,
        "name": "O'Connor Enclosed",
        "city": "Canberra",
        "capacity": 1000,
        "latitude": -35.2610112,
        "longitude": 149.1235269
    },
    {
        "id": 1942,
        "name": "Nijong Oval",
        "city": "Canberra",
        "capacity": 1000,
        "latitude": -36.2311533,
        "longitude": 149.1207857
    },
    {
        "id": 1944,
        "name": "Riverside Stadium",
        "city": "Queanbeyan",
        "capacity": 2000,
        "latitude": -35.3481903,
        "longitude": 149.2366485
    },
    {
        "id": 1943,
        "name": "AIS Grass Field 1",
        "city": "Canberra",
        "capacity": 1500,
        "latitude": -35.2467047,
        "longitude": 149.1066925
    },
    {
        "id": 111122232112,
        "name": "Solar Mad Stadium",
        "city": "Griffith",
        "capacity": null,
        "latitude": -34.2915546,
        "longitude": 146.0476593
    },
    {
        "id": 1947,
        "name": "Melrose Synthetic",
        "city": "Canberra",
        "capacity": 3000,
        "latitude": -35.3634759,
        "longitude": 149.0911658
    },
    {
        "id": 20680,
        "name": "ANU South Oval",
        "city": "Canberra",
        "capacity": 1000,
        "latitude": -35.2809627,
        "longitude": 149.116114
    },
    {
        "id": 666555888999,
        "name": "Calwell Playing Fields",
        "city": "Calwell",
        "capacity": null,
        "latitude": -35.4391705,
        "longitude": 149.1201115
    },
    {
        "id": 6655544455654,
        "name": "Gungahlin Enclosed Oval",
        "city": "Gungahlin",
        "capacity": null,
        "latitude": -35.184918,
        "longitude": 149.127262
    },
    {
        "id": 20681,
        "name": "High Street Oval",
        "city": "Queanbeyan",
        "capacity": 1000,
        "latitude": -35.3472247,
        "longitude": 149.2410356
    },
    {
        "id": 66777888899898,
        "name": "Gissing Oval",
        "city": "Wagga Wagga",
        "capacity": null,
        "latitude": -35.1308654,
        "longitude": 147.3556168
    },
    {
        "id": 2549,
        "name": "Cromer Park",
        "city": "Sydney",
        "capacity": 5000,
        "latitude": -33.7390344,
        "longitude": 151.2846351
    },
    {
        "id": 2550,
        "name": "Marconi Stadium",
        "city": "Sydney",
        "capacity": 11500,
        "latitude": -33.8634642,
        "longitude": 150.8803683
    },
    {
        "id": 2553,
        "name": "Seymour Shaw Park",
        "city": "Sydney",
        "capacity": 5000,
        "latitude": -34.0304211,
        "longitude": 151.1008656
    },
    {
        "id": 2554,
        "name": "Belmore Sports Ground",
        "city": "Sydney",
        "capacity": 25000,
        "latitude": -33.9173263,
        "longitude": 151.0940906
    },
    {
        "id": 2555,
        "name": "Sydney United Sports Center",
        "city": "Sydney",
        "capacity": 12000,
        "latitude": -33.8759426,
        "longitude": 150.873953
    },
    {
        "id": 2556,
        "name": "WIN Stadium",
        "city": "Wollongong",
        "capacity": 18484,
        "latitude": -34.4285293,
        "longitude": 150.9025465
    },
    {
        "id": 19368,
        "name": "Wanderers Football Park Academy",
        "city": "Sydney",
        "capacity": 1000,
        "latitude": -33.77543989999999,
        "longitude": 150.8578811
    },
    {
        "id": 11607,
        "name": "Pluim Park",
        "city": "Lisarow",
        "capacity": 2000,
        "latitude": -33.3789172,
        "longitude": 151.3766488
    },
    {
        "id": 12685,
        "name": "Blacktown City Sports Centre Main",
        "city": "Blacktown",
        "capacity": 7500,
        "latitude": -33.7679759,
        "longitude": 150.9399069
    },
    {
        "id": 11611,
        "name": "Peakhurst Park Synthetic",
        "city": "Sydney",
        "capacity": 1000,
        "latitude": -33.9588252,
        "longitude": 151.0584786
    },
    {
        "id": 2548,
        "name": "Hensley Athletic Field",
        "city": "Eastgardens",
        "capacity": 1000,
        "latitude": -33.947086,
        "longitude": 151.2224477
    },
    {
        "id": 2551,
        "name": "Popondetta Park",
        "city": "Emerton",
        "capacity": 2000,
        "latitude": -33.7377422,
        "longitude": 150.8073648
    },
    {
        "id": 8098,
        "name": "Bonnyrigg Sports Club",
        "city": "Sydney",
        "capacity": 5000,
        "latitude": -33.8876591,
        "longitude": 150.873868
    },
    {
        "id": 11606,
        "name": "Blacktown Football Park 1",
        "city": "Sydney",
        "capacity": 2000,
        "latitude": -33.7739475,
        "longitude": 150.8566266
    },
    {
        "id": 11609,
        "name": "North Turramurra Recreation Area",
        "city": "Sydney",
        "capacity": 1000,
        "latitude": -33.7032754,
        "longitude": 151.1485213
    },
    {
        "id": 11610,
        "name": "Ernie Smith Reserve",
        "city": "Moorebank",
        "capacity": 1000,
        "latitude": -33.932369,
        "longitude": 150.9434702
    },
    {
        "id": 19361,
        "name": "Jensen Park",
        "city": "Sydney",
        "capacity": 8000,
        "latitude": -33.8835064,
        "longitude": 151.0177307
    },
    {
        "id": 19363,
        "name": "Arlington Oval",
        "city": "Dulwich Hill",
        "capacity": 1000,
        "latitude": -33.9025788,
        "longitude": 151.136725
    },
    {
        "id": 19364,
        "name": "Fraser Park",
        "city": "Marrickville",
        "capacity": 3000,
        "latitude": -33.9152863,
        "longitude": 151.162024
    },
    {
        "id": 19365,
        "name": "Majors Bay Reserve",
        "city": "Sydney",
        "capacity": 1000,
        "latitude": -33.8462003,
        "longitude": 151.0989732
    },
    {
        "id": 19366,
        "name": "Lynwood Park",
        "city": "St Helens Park",
        "capacity": 1000,
        "latitude": -34.101324,
        "longitude": 150.8233262
    },
    {
        "id": 19367,
        "name": "Rydalmere Park",
        "city": "Rydalmere",
        "capacity": 1000,
        "latitude": -33.8135289,
        "longitude": 151.039799
    },
    {
        "id": 20448,
        "name": "Cook Park Saint Marys",
        "city": "Sydney",
        "capacity": 1000,
        "latitude": -33.7760488,
        "longitude": 150.7675917
    },
    {
        "id": 20449,
        "name": "The Village Green Field 1",
        "city": "Kensington",
        "capacity": 1000,
        "latitude": -33.9184307,
        "longitude": 151.2279767
    },
    {
        "id": 7479,
        "name": "Ulinga Oval",
        "city": "City of Lake Macquarie",
        "capacity": 1000,
        "latitude": -32.9550726,
        "longitude": 151.6666708
    },
    {
        "id": 20674,
        "name": "Johnston Park",
        "city": "Newcastle",
        "capacity": 1000,
        "latitude": -32.9009399,
        "longitude": 151.5788421
    },
    {
        "id": 1112223355665,
        "name": "Blacksmiths Oval",
        "city": "Blacksmiths",
        "capacity": null,
        "latitude": -33.0806902,
        "longitude": 151.6520762
    },
    {
        "id": 21533,
        "name": "Turner Park",
        "city": "Cessnock",
        "capacity": 2000,
        "latitude": -32.8422706,
        "longitude": 151.3658518
    },
    {
        "id": 21534,
        "name": "Kahibah Oval",
        "city": "Charlestown",
        "capacity": 2500,
        "latitude": -32.9702491,
        "longitude": 151.7069244
    },
    {
        "id": 21535,
        "name": "Howe Park",
        "city": "Singleton",
        "capacity": 1000,
        "latitude": -32.5635483,
        "longitude": 151.1815126
    },
    {
        "id": 21536,
        "name": "Thornton Park",
        "city": "Thornton",
        "capacity": 1000,
        "latitude": -32.7776609519489,
        "longitude": 151.64182017500264
    },
    {
        "id": 20675,
        "name": "Lyall Peacock Field",
        "city": "Toronto",
        "capacity": 1000,
        "latitude": -33.0114226,
        "longitude": 151.5893823
    },
    {
        "id": 7480,
        "name": "The Gardens",
        "city": "Newcastle",
        "capacity": 4000,
        "latitude": -32.8935354,
        "longitude": 151.683315
    },
    {
        "id": 7152,
        "name": "Adamstown Oval",
        "city": "Newcastle",
        "capacity": 2000,
        "latitude": -32.9336384,
        "longitude": 151.7305392
    },
    {
        "id": 7153,
        "name": "Wanderers Oval",
        "city": "Newcastle",
        "capacity": 2000,
        "latitude": -32.9204417,
        "longitude": 151.7309993
    },
    {
        "id": 7154,
        "name": "Lisle Carr Oval",
        "city": "Whitebridge",
        "capacity": 2000,
        "latitude": -32.9782866,
        "longitude": 151.714981
    },
    {
        "id": 7156,
        "name": "Darling Street Oval",
        "city": "Newcastle",
        "capacity": 1000,
        "latitude": -32.9334648,
        "longitude": 151.7422911
    },
    {
        "id": 7157,
        "name": "Macquarie Field",
        "city": "Newcastle",
        "capacity": 3000,
        "latitude": -32.9598814,
        "longitude": 151.616056
    },
    {
        "id": 7159,
        "name": "Cooks Square Park",
        "city": "East Maitland",
        "capacity": 1000,
        "latitude": -32.7525851,
        "longitude": 151.5825176
    },
    {
        "id": 7160,
        "name": "Croudace Bay Soccer Fields",
        "city": "Lake Macquarie",
        "capacity": 1000,
        "latitude": -33.004755,
        "longitude": 151.6488986
    },
    {
        "id": 7161,
        "name": "Hunter City Motor Group Stadium",
        "city": "Weston",
        "capacity": 1000,
        "latitude": -32.81327415669163,
        "longitude": 151.46619276707054
    },
    {
        "id": 12668,
        "name": "Fearnley Dawes Athletic Centre",
        "city": "Newcastle",
        "capacity": 1000,
        "latitude": -32.9302884,
        "longitude": 151.7601163
    },
    {
        "id": 333222666555,
        "name": "Alder Park",
        "city": "New Lambton",
        "capacity": null,
        "latitude": -32.9321792,
        "longitude": 151.7154263
    }
]