[
    {
        "id": 19939,
        "name": "Camp Nou",
        "city": "Barcelona",
        "capacity": 55926,
        "latitude": 41.380896,
        "longitude": 2.1228198
    },
    {
        "id": 19217,
        "name": "Estádio Cívitas Metropolitano",
        "city": "Madrid",
        "capacity": 70460,
        "latitude": 40.4362323,
        "longitude": -3.5994819
    },
    {
        "id": 1460,
        "name": "San Mamés Barria",
        "city": "Bilbao",
        "capacity": 53289,
        "latitude": 43.2641706,
        "longitude": -2.9493731
    },
    {
        "id": 1497,
        "name": "Estadio de Mestalla",
        "city": "Valencia",
        "capacity": 55000,
        "latitude": 39.4746556,
        "longitude": -0.3585902
    },
    {
        "id": 1498,
        "name": "Estadio de la Cerámica",
        "city": "Villarreal",
        "capacity": 24500,
        "latitude": 39.9438858,
        "longitude": -0.1031381
    },
    {
        "id": 1481,
        "name": "Estadio de Gran Canaria",
        "city": "Las Palmas de Gran Canaria",
        "capacity": 32392,
        "latitude": 28.1003684,
        "longitude": -15.4567013
    },
    {
        "id": 1494,
        "name": "Estadio Ramón Sánchez Pizjuán",
        "city": "Sevilla",
        "capacity": 48649,
        "latitude": 37.3840863,
        "longitude": -5.9709778
    },
    {
        "id": 1464,
        "name": "Estadio Municipal de Butarque",
        "city": "Leganés",
        "capacity": 12450,
        "latitude": 40.3404745,
        "longitude": -3.7606867
    },
    {
        "id": 1467,
        "name": "Abanca-Balaídos",
        "city": "Vigo",
        "capacity": 31800,
        "latitude": 42.2119201,
        "longitude": -8.73974
    },
    {
        "id": 20421,
        "name": "Stage Front Stadium",
        "city": "Cornella de Llobregat",
        "capacity": 40423,
        "latitude": 41.3481402,
        "longitude": 2.0745609
    },
    {
        "id": 1456,
        "name": "Estadio Santiago Bernabéu",
        "city": "Madrid",
        "capacity": 85454,
        "latitude": 40.4530196,
        "longitude": -3.6883748
    },
    {
        "id": 1470,
        "name": "Estadio de Mendizorroza",
        "city": "Vitoria-Gasteiz",
        "capacity": 19840,
        "latitude": 42.83708559999999,
        "longitude": -2.6882403
    },
    {
        "id": 1489,
        "name": "Estadio Benito Villamarín",
        "city": "Sevilla",
        "capacity": 60721,
        "latitude": 37.3564922,
        "longitude": -5.9817117
    },
    {
        "id": 20422,
        "name": "Estadio Coliseum",
        "city": "Getafe",
        "capacity": 17393,
        "latitude": 40.3257337,
        "longitude": -3.7149224
    },
    {
        "id": 1478,
        "name": "Estadi Municipal de Montilivi",
        "city": "Girona",
        "capacity": 14500,
        "latitude": 41.9610546,
        "longitude": 2.8277552
    },
    {
        "id": 1491,
        "name": "Reale Arena",
        "city": "Donostia-San Sebastián",
        "capacity": 40000,
        "latitude": 43.3013668,
        "longitude": -1.9735868
    },
    {
        "id": 1492,
        "name": "Estadio Municipal José Zorrilla",
        "city": "Valladolid",
        "capacity": 26512,
        "latitude": 41.6445864,
        "longitude": -4.761241900000001
    },
    {
        "id": 1486,
        "name": "Estadio El Sadar",
        "city": "Iruñea",
        "capacity": 23576,
        "latitude": 42.7966918,
        "longitude": -1.6371198
    },
    {
        "id": 1488,
        "name": "Estadio de Vallecas",
        "city": "Madrid",
        "capacity": 15500,
        "latitude": 40.3918305,
        "longitude": -3.6585975
    },
    {
        "id": 19940,
        "name": "Estadi Mallorca Son Moix",
        "city": "Palma de Mallorca",
        "capacity": 23142,
        "latitude": 39.589952,
        "longitude": 2.63005
    },
    {
        "id": 1483,
        "name": "Estadio La Rosaleda",
        "city": "Málaga",
        "capacity": 30389,
        "latitude": 36.7335802,
        "longitude": -4.426652
    },
    {
        "id": 1482,
        "name": "Estadio Ciudad de Valencia",
        "city": "Valencia",
        "capacity": 25534,
        "latitude": 39.4946891,
        "longitude": -0.3638225
    },
    {
        "id": 1471,
        "name": "Estadio Abanca-Riazor",
        "city": "La Coruña",
        "capacity": 34611,
        "latitude": 43.3683736,
        "longitude": -8.4171049
    },
    {
        "id": 1472,
        "name": "Estadio Municipal de Ipurúa",
        "city": "Eibar",
        "capacity": 8050,
        "latitude": 43.1817416,
        "longitude": -2.475868
    },
    {
        "id": 1469,
        "name": "Estadio Nuevo Arcángel",
        "city": "Córdoba",
        "capacity": 21822,
        "latitude": 37.8721706,
        "longitude": -4.7644367
    },
    {
        "id": 1479,
        "name": "Estadio Nuevo Los Cármenes",
        "city": "Granada",
        "capacity": 23156,
        "latitude": 37.1529018,
        "longitude": -3.5957356
    },
    {
        "id": 1490,
        "name": "Estadio Nuevo Carlos Tartiere",
        "city": "Oviedo",
        "capacity": 30500,
        "latitude": 43.360766,
        "longitude": -5.870241399999999
    },
    {
        "id": 22053,
        "name": "Estadio Heliodoro Rodríguez Lopéz",
        "city": "Santa Cruz de Tenerife (Tenerife)",
        "capacity": 23660,
        "latitude": 28.4632978,
        "longitude": -16.2605297
    },
    {
        "id": 1458,
        "name": "Estadio Carlos Belmonte",
        "city": "Albacete",
        "capacity": 17524,
        "latitude": 38.9809093,
        "longitude": -1.852882
    },
    {
        "id": 19216,
        "name": "Power Horse Stadium - Estadio de los Juegos Mediterráneos",
        "city": "Almería",
        "capacity": 21350,
        "latitude": 36.8400442,
        "longitude": -2.4354344
    },
    {
        "id": 11915,
        "name": "Estadio Nuevo Mirandilla",
        "city": "Cádiz",
        "capacity": 22000,
        "latitude": 36.502601,
        "longitude": -6.2729285
    },
    {
        "id": 1480,
        "name": "Estadio El Alcoraz",
        "city": "Huesca",
        "capacity": 9128,
        "latitude": 42.13188830000001,
        "longitude": -0.4247182
    },
    {
        "id": 1495,
        "name": "Estadio Municipal El Molinón",
        "city": "Gijón",
        "capacity": 29538,
        "latitude": 43.5362506,
        "longitude": -5.6374096
    },
    {
        "id": 1493,
        "name": "Estadio de la Romareda",
        "city": "Zaragoza",
        "capacity": 34596,
        "latitude": 41.6364449,
        "longitude": -0.9018404999999999
    },
    {
        "id": 1473,
        "name": "Estadio Manuel Martínez Valero",
        "city": "Elche",
        "capacity": 36017,
        "latitude": 38.2671385,
        "longitude": -0.6628111
    },
    {
        "id": 2920,
        "name": "Estadio Municipal de Anduva",
        "city": "Miranda de Ebro",
        "capacity": 6000,
        "latitude": 42.6808257,
        "longitude": -2.9353593
    },
    {
        "id": 3516,
        "name": "Campos de Sport de El Sardinero",
        "city": "Santander",
        "capacity": 22271,
        "latitude": 43.4762983,
        "longitude": -3.7932772
    },
    {
        "id": 3968,
        "name": "Nou Estadi Castalia",
        "city": "Castellón de la Plana",
        "capacity": 14485,
        "latitude": 39.9961111,
        "longitude": -0.0386111
    },
    {
        "id": 3976,
        "name": "Estadio Municipal Cartagonova",
        "city": "Cartagena",
        "capacity": 15105,
        "latitude": 37.6097329,
        "longitude": -0.9960534999999999
    },
    {
        "id": 6510,
        "name": "Estadio Municipal de A Malata",
        "city": "Ferrol",
        "capacity": 12043,
        "latitude": 43.4912266,
        "longitude": -8.2394125
    },
    {
        "id": 6674,
        "name": "Estadio Municipal de El Plantío",
        "city": "Burgos",
        "capacity": 12200,
        "latitude": 42.34426939999999,
        "longitude": -3.6806043
    },
    {
        "id": 6783,
        "name": "Estadio Municipal Nuevo Pepico Amat",
        "city": "Elda",
        "capacity": 5776,
        "latitude": 38.4675132,
        "longitude": -0.7967371999999999
    },
    {
        "id": 2917,
        "name": "Estadi Johan Cruyff",
        "city": "Sant Joan Despí",
        "capacity": 6000,
        "latitude": 41.3734833,
        "longitude": 2.0505585
    },
    {
        "id": 20300,
        "name": "Nou Estadi Costa Daurada",
        "city": "Tarragona",
        "capacity": 16600,
        "latitude": 41.127051,
        "longitude": 1.272851
    },
    {
        "id": 1465,
        "name": "Estadio Anxo Carro",
        "city": "Lugo",
        "capacity": 8168,
        "latitude": 43.0032743,
        "longitude": -7.570963799999999
    },
    {
        "id": 2916,
        "name": "Estadio Municipal Reino de León",
        "city": "León",
        "capacity": 13451,
        "latitude": 42.587534,
        "longitude": -5.576597599999999
    },
    {
        "id": 3708,
        "name": "Estadio El Toralín",
        "city": "Ponferrada",
        "capacity": 8800,
        "latitude": 42.557376,
        "longitude": -6.5998646
    },
    {
        "id": 3965,
        "name": "Estadio Nuevo Lasesarre",
        "city": "Barakaldo",
        "capacity": 7960,
        "latitude": 43.3019687,
        "longitude": -2.9891803
    },
    {
        "id": 19230,
        "name": "Campo de Futbol Reina Sofía",
        "city": "Salamanca",
        "capacity": 4895,
        "latitude": 40.9467537,
        "longitude": -5.6659769
    },
    {
        "id": 2618,
        "name": "Estadi Nacional",
        "city": "Andorra la Vella",
        "capacity": 3306,
        "latitude": 42.50467219999999,
        "longitude": 1.517565
    },
    {
        "id": 6482,
        "name": "Campo Municipal de Urritxe",
        "city": "Amorebieta-Echano",
        "capacity": 3000,
        "latitude": 43.2213871,
        "longitude": -2.7248347
    },
    {
        "id": 6489,
        "name": "Estadio Municipal de La Albuera",
        "city": "Segovia",
        "capacity": 3000,
        "latitude": 40.94139879999999,
        "longitude": -4.0998204
    },
    {
        "id": 6513,
        "name": "Estadio Las Llanas",
        "city": "Sestao",
        "capacity": 8905,
        "latitude": 43.3106429,
        "longitude": -3.0099847
    },
    {
        "id": 6516,
        "name": "Estadio Municipal de Tarazona",
        "city": "Tarazona",
        "capacity": 2200,
        "latitude": 41.90885859999999,
        "longitude": -1.71775
    },
    {
        "id": 6518,
        "name": "Estadio Ruta de la Plata",
        "city": "Zamora",
        "capacity": 7818,
        "latitude": 41.4866898,
        "longitude": -5.7477939
    },
    {
        "id": 6665,
        "name": "Campo de Fútbol Municipal de Barreiro",
        "city": "Vigo",
        "capacity": 4500,
        "latitude": 42.2287748,
        "longitude": -8.6809064
    },
    {
        "id": 12288,
        "name": "Instalaciones de Lezama Campo 2",
        "city": "Lezama",
        "capacity": 2925,
        "latitude": 43.2775097,
        "longitude": -2.8382526
    },
    {
        "id": 6677,
        "name": "Instalaciones Deportivas de Tajonar",
        "city": "Tajonar",
        "capacity": 4000,
        "latitude": 42.7759034,
        "longitude": -1.6257124
    },
    {
        "id": 20313,
        "name": "Instalaciones de Zubieta",
        "city": "Donostia-San Sebastián",
        "capacity": 1500,
        "latitude": 43.2589185,
        "longitude": -2.0259699
    },
    {
        "id": 6679,
        "name": "Estadio Gal",
        "city": "Irún",
        "capacity": 6344,
        "latitude": 43.3454522,
        "longitude": -1.7858345
    },
    {
        "id": 6697,
        "name": "Estadio de Espiñedo",
        "city": "O Carballiño",
        "capacity": 4500,
        "latitude": 42.42526489999999,
        "longitude": -8.08587
    },
    {
        "id": 6705,
        "name": "Estadio O Couto",
        "city": "Ourense",
        "capacity": 5625,
        "latitude": 42.3407884,
        "longitude": -7.8757958
    },
    {
        "id": 1457,
        "name": "Estadio Santo Domingo",
        "city": "Alcorcón",
        "capacity": 7000,
        "latitude": 40.3388592,
        "longitude": -3.8404714
    },
    {
        "id": 2919,
        "name": "Estadio Jesús Navas",
        "city": "Sevilla",
        "capacity": 7000,
        "latitude": 37.3523162,
        "longitude": -5.9470053
    },
    {
        "id": 3517,
        "name": "Estadio José Rico Pérez",
        "city": "Alicante",
        "capacity": 29584,
        "latitude": 38.3573154,
        "longitude": -0.4926576
    },
    {
        "id": 3707,
        "name": "Estadio Fernando Torres",
        "city": "Fuenlabrada",
        "capacity": 7500,
        "latitude": 40.2912539,
        "longitude": -3.8266366
    },
    {
        "id": 3981,
        "name": "Estadio Municipal Antonio Lorenzo Cuevas",
        "city": "Marbella",
        "capacity": 7300,
        "latitude": 36.5117742,
        "longitude": -4.8787907
    },
    {
        "id": 3989,
        "name": "Estadio Enrique Roca de Murcia",
        "city": "Murcia",
        "capacity": 31179,
        "latitude": 38.0422688,
        "longitude": -1.1452422
    },
    {
        "id": 3997,
        "name": "Estadio Municipal La Constitución",
        "city": "Yecla",
        "capacity": 4700,
        "latitude": 38.6085214,
        "longitude": -1.1068307
    },
    {
        "id": 20132,
        "name": "Ciudad Deportiva Antonio Solana",
        "city": "Alicante",
        "capacity": 4000,
        "latitude": 38.37863,
        "longitude": -0.4866816
    },
    {
        "id": 12463,
        "name": "Estadio Can Misses - Power Electronic",
        "city": "Ibiza",
        "capacity": 6500,
        "latitude": 38.9139282,
        "longitude": 1.4157596
    },
    {
        "id": 6511,
        "name": "Estadio Nuevo Colombino",
        "city": "Huelva",
        "capacity": 19860,
        "latitude": 37.24651850000001,
        "longitude": -6.9540336
    },
    {
        "id": 1487,
        "name": "Miniestadio Cerro del Espino",
        "city": "Majadahonda",
        "capacity": 3865,
        "latitude": 40.4575422,
        "longitude": -3.8602657
    },
    {
        "id": 6669,
        "name": "Estadio Alfredo Di Stéfano",
        "city": "Madrid",
        "capacity": 6500,
        "latitude": 40.47693,
        "longitude": -3.6142698
    },
    {
        "id": 6690,
        "name": "Estadio Nuevo Mirador",
        "city": "Algeciras",
        "capacity": 8209,
        "latitude": 36.1630173,
        "longitude": -5.4651517
    },
    {
        "id": 6694,
        "name": "Estadio El Palmar",
        "city": "Sanlúcar de Barrameda",
        "capacity": 5000,
        "latitude": 36.7670051,
        "longitude": -6.34774
    },
    {
        "id": 6777,
        "name": "Campo Municipal El Collao",
        "city": "Alcoy",
        "capacity": 4850,
        "latitude": 38.6910838,
        "longitude": -0.4903591
    },
    {
        "id": 6828,
        "name": "Estadio El Maulí",
        "city": "Antequera",
        "capacity": 7000,
        "latitude": 37.0205922,
        "longitude": -4.571806599999999
    },
    {
        "id": 6849,
        "name": "Ciudad Deportiva Luis de Sol",
        "city": "Sevilla",
        "capacity": 3000,
        "latitude": 37.3513473,
        "longitude": -5.9819412
    },
    {
        "id": 3969,
        "name": "Estadio Municipal Alfonso Murube",
        "city": "Ceuta",
        "capacity": 7000,
        "latitude": 35.8854565,
        "longitude": -5.3279087
    },
    {
        "id": 7132,
        "name": "Estadio Romano",
        "city": "Mérida",
        "capacity": 14600,
        "latitude": 38.9139943,
        "longitude": -6.3366035
    },
    {
        "id": 1485,
        "name": "Nuevo Estadio Los Pajaritos",
        "city": "Soria",
        "capacity": 9025,
        "latitude": 41.7553115,
        "longitude": -2.4678597
    },
    {
        "id": 3970,
        "name": "Estadio Multiusos de San Lázaro",
        "city": "Santiago de Compostela",
        "capacity": 14000,
        "latitude": 42.8827276,
        "longitude": -8.5160307
    },
    {
        "id": 3978,
        "name": "Estadio El Malecón",
        "city": "Torrelavega",
        "capacity": 6007,
        "latitude": 43.350446,
        "longitude": -4.0626991
    },
    {
        "id": 3979,
        "name": "Estadio Nuevo Ganzábal",
        "city": "La Felguera",
        "capacity": 4024,
        "latitude": 43.302009,
        "longitude": -5.6898173
    },
    {
        "id": 6485,
        "name": "Estadio As Eiroas",
        "city": "Carballo",
        "capacity": 5000,
        "latitude": 43.2353818,
        "longitude": -8.686929899999999
    },
    {
        "id": 6487,
        "name": "Campo do Vao",
        "city": "Vigo",
        "capacity": 1500,
        "latitude": 42.1955095,
        "longitude": -8.7930751
    },
    {
        "id": 6488,
        "name": "Estadio Eusebio Arce",
        "city": "Escobedo de Camargo",
        "capacity": 2000,
        "latitude": -23.5158812,
        "longitude": -47.4404671
    },
    {
        "id": 12287,
        "name": "Estadio Municipal Luis Ramos",
        "city": "Guijuelo",
        "capacity": 1800,
        "latitude": 40.5467702,
        "longitude": -5.6736767
    },
    {
        "id": 6496,
        "name": "Campo San Lorenzo",
        "city": "Laredo",
        "capacity": 2500,
        "latitude": 43.40722170000001,
        "longitude": -3.4153564
    },
    {
        "id": 6502,
        "name": "Estadi Municipal de Miramar",
        "city": "Luanco",
        "capacity": 5000,
        "latitude": 43.6130377,
        "longitude": -5.799894099999999
    },
    {
        "id": 6508,
        "name": "Estadio Municipal de Pasarón",
        "city": "Pontevedra",
        "capacity": 16500,
        "latitude": 42.4385649,
        "longitude": -8.6413797
    },
    {
        "id": 6680,
        "name": "Campo 1 Anexos del José Zorrilla hierba natural",
        "city": "Valladolid",
        "capacity": 1500,
        "latitude": 41.6440018,
        "longitude": -4.7635596
    },
    {
        "id": 6681,
        "name": "Estadio El Helmántico",
        "city": "Salamanca",
        "capacity": 17341,
        "latitude": 40.9955027,
        "longitude": -5.6650504
    },
    {
        "id": 6703,
        "name": "Ciudad Deportiva de Abegondo",
        "city": "La Coruña",
        "capacity": 2000,
        "latitude": 43.2509537,
        "longitude": -8.2843325
    },
    {
        "id": 6719,
        "name": "Campo Municipal de Fútbol Pepe Quimarán",
        "city": "Llanera",
        "capacity": 2500,
        "latitude": 43.4441664,
        "longitude": -5.856976200000001
    },
    {
        "id": 6724,
        "name": "Estadio Román Suárez Puerta",
        "city": "Avilés",
        "capacity": 5200,
        "latitude": 43.5575199,
        "longitude": -5.9305901
    },
    {
        "id": 6734,
        "name": "Estadio La Albericia",
        "city": "Santander",
        "capacity": 1100,
        "latitude": 43.4606214,
        "longitude": -3.8531778
    },
    {
        "id": 6824,
        "name": "Estadio Municipal Adolfo Suárez",
        "city": "Ávila",
        "capacity": 5500,
        "latitude": 40.6462458,
        "longitude": -4.701602299999999
    }
]