[
    {
        "id": 19939,
        "name": "Camp Nou",
        "city": "Barcelona",
        "capacity": 55926,
        "latitude": 41.380896,
        "longitude": 2.1228198
    },
    {
        "id": 19217,
        "name": "Estádio Cívitas Metropolitano",
        "city": "Madrid",
        "capacity": 70460,
        "latitude": 40.4362323,
        "longitude": -3.5994819
    },
    {
        "id": 1460,
        "name": "San Mamés Barria",
        "city": "Bilbao",
        "capacity": 53289,
        "latitude": 43.2641706,
        "longitude": -2.9493731
    },
    {
        "id": 1497,
        "name": "Estadio de Mestalla",
        "city": "Valencia",
        "capacity": 55000,
        "latitude": 39.4746556,
        "longitude": -0.3585902
    },
    {
        "id": 1498,
        "name": "Estadio de la Cerámica",
        "city": "Villarreal",
        "capacity": 24500,
        "latitude": 39.9438858,
        "longitude": -0.1031381
    },
    {
        "id": 1481,
        "name": "Estadio de Gran Canaria",
        "city": "Las Palmas de Gran Canaria",
        "capacity": 32392,
        "latitude": 28.1003684,
        "longitude": -15.4567013
    },
    {
        "id": 1494,
        "name": "Estadio Ramón Sánchez Pizjuán",
        "city": "Sevilla",
        "capacity": 48649,
        "latitude": 37.3840863,
        "longitude": -5.9709778
    },
    {
        "id": 1464,
        "name": "Estadio Municipal de Butarque",
        "city": "Leganés",
        "capacity": 12450,
        "latitude": 40.3404745,
        "longitude": -3.7606867
    },
    {
        "id": 1467,
        "name": "Abanca-Balaídos",
        "city": "Vigo",
        "capacity": 31800,
        "latitude": 42.2119201,
        "longitude": -8.73974
    },
    {
        "id": 20421,
        "name": "Stage Front Stadium",
        "city": "Cornella de Llobregat",
        "capacity": 40423,
        "latitude": 41.3481402,
        "longitude": 2.0745609
    },
    {
        "id": 1456,
        "name": "Estadio Santiago Bernabéu",
        "city": "Madrid",
        "capacity": 85454,
        "latitude": 40.4530196,
        "longitude": -3.6883748
    },
    {
        "id": 1470,
        "name": "Estadio de Mendizorroza",
        "city": "Vitoria-Gasteiz",
        "capacity": 19840,
        "latitude": 42.83708559999999,
        "longitude": -2.6882403
    },
    {
        "id": 1489,
        "name": "Estadio Benito Villamarín",
        "city": "Sevilla",
        "capacity": 60721,
        "latitude": 37.3564922,
        "longitude": -5.9817117
    },
    {
        "id": 20422,
        "name": "Estadio Coliseum",
        "city": "Getafe",
        "capacity": 17393,
        "latitude": 40.3257337,
        "longitude": -3.7149224
    },
    {
        "id": 1478,
        "name": "Estadi Municipal de Montilivi",
        "city": "Girona",
        "capacity": 14500,
        "latitude": 41.9610546,
        "longitude": 2.8277552
    },
    {
        "id": 1491,
        "name": "Reale Arena",
        "city": "Donostia-San Sebastián",
        "capacity": 40000,
        "latitude": 43.3013668,
        "longitude": -1.9735868
    },
    {
        "id": 1492,
        "name": "Estadio Municipal José Zorrilla",
        "city": "Valladolid",
        "capacity": 26512,
        "latitude": 41.6445864,
        "longitude": -4.761241900000001
    },
    {
        "id": 1486,
        "name": "Estadio El Sadar",
        "city": "Iruñea",
        "capacity": 23576,
        "latitude": 42.7966918,
        "longitude": -1.6371198
    },
    {
        "id": 1488,
        "name": "Estadio de Vallecas",
        "city": "Madrid",
        "capacity": 15500,
        "latitude": 40.3918305,
        "longitude": -3.6585975
    },
    {
        "id": 19940,
        "name": "Estadi Mallorca Son Moix",
        "city": "Palma de Mallorca",
        "capacity": 23142,
        "latitude": 39.589952,
        "longitude": 2.63005
    },
    {
        "id": 1483,
        "name": "Estadio La Rosaleda",
        "city": "Málaga",
        "capacity": 30389,
        "latitude": 36.7335802,
        "longitude": -4.426652
    },
    {
        "id": 1482,
        "name": "Estadio Ciudad de Valencia",
        "city": "Valencia",
        "capacity": 25534,
        "latitude": 39.4946891,
        "longitude": -0.3638225
    },
    {
        "id": 1471,
        "name": "Estadio Abanca-Riazor",
        "city": "La Coruña",
        "capacity": 34611,
        "latitude": 43.3683736,
        "longitude": -8.4171049
    },
    {
        "id": 1472,
        "name": "Estadio Municipal de Ipurúa",
        "city": "Eibar",
        "capacity": 8050,
        "latitude": 43.1817416,
        "longitude": -2.475868
    },
    {
        "id": 1469,
        "name": "Estadio Nuevo Arcángel",
        "city": "Córdoba",
        "capacity": 21822,
        "latitude": 37.8721706,
        "longitude": -4.7644367
    },
    {
        "id": 1479,
        "name": "Estadio Nuevo Los Cármenes",
        "city": "Granada",
        "capacity": 23156,
        "latitude": 37.1529018,
        "longitude": -3.5957356
    },
    {
        "id": 1490,
        "name": "Estadio Nuevo Carlos Tartiere",
        "city": "Oviedo",
        "capacity": 30500,
        "latitude": 43.360766,
        "longitude": -5.870241399999999
    },
    {
        "id": 22053,
        "name": "Estadio Heliodoro Rodríguez Lopéz",
        "city": "Santa Cruz de Tenerife (Tenerife)",
        "capacity": 23660,
        "latitude": 28.4632978,
        "longitude": -16.2605297
    },
    {
        "id": 1458,
        "name": "Estadio Carlos Belmonte",
        "city": "Albacete",
        "capacity": 17524,
        "latitude": 38.9809093,
        "longitude": -1.852882
    },
    {
        "id": 19216,
        "name": "Power Horse Stadium - Estadio de los Juegos Mediterráneos",
        "city": "Almería",
        "capacity": 21350,
        "latitude": 36.8400442,
        "longitude": -2.4354344
    },
    {
        "id": 11915,
        "name": "Estadio Nuevo Mirandilla",
        "city": "Cádiz",
        "capacity": 22000,
        "latitude": 36.502601,
        "longitude": -6.2729285
    },
    {
        "id": 1480,
        "name": "Estadio El Alcoraz",
        "city": "Huesca",
        "capacity": 9128,
        "latitude": 42.13188830000001,
        "longitude": -0.4247182
    },
    {
        "id": 1495,
        "name": "Estadio Municipal El Molinón",
        "city": "Gijón",
        "capacity": 29538,
        "latitude": 43.5362506,
        "longitude": -5.6374096
    },
    {
        "id": 1493,
        "name": "Estadio de la Romareda",
        "city": "Zaragoza",
        "capacity": 34596,
        "latitude": 41.6364449,
        "longitude": -0.9018404999999999
    },
    {
        "id": 1473,
        "name": "Estadio Manuel Martínez Valero",
        "city": "Elche",
        "capacity": 36017,
        "latitude": 38.2671385,
        "longitude": -0.6628111
    },
    {
        "id": 2920,
        "name": "Estadio Municipal de Anduva",
        "city": "Miranda de Ebro",
        "capacity": 6000,
        "latitude": 42.6808257,
        "longitude": -2.9353593
    },
    {
        "id": 3516,
        "name": "Campos de Sport de El Sardinero",
        "city": "Santander",
        "capacity": 22271,
        "latitude": 43.4762983,
        "longitude": -3.7932772
    },
    {
        "id": 3968,
        "name": "Nou Estadi Castalia",
        "city": "Castellón de la Plana",
        "capacity": 14485,
        "latitude": 39.9961111,
        "longitude": -0.0386111
    },
    {
        "id": 3976,
        "name": "Estadio Municipal Cartagonova",
        "city": "Cartagena",
        "capacity": 15105,
        "latitude": 37.6097329,
        "longitude": -0.9960534999999999
    },
    {
        "id": 6510,
        "name": "Estadio Municipal de A Malata",
        "city": "Ferrol",
        "capacity": 12043,
        "latitude": 43.4912266,
        "longitude": -8.2394125
    },
    {
        "id": 6674,
        "name": "Estadio Municipal de El Plantío",
        "city": "Burgos",
        "capacity": 12200,
        "latitude": 42.34426939999999,
        "longitude": -3.6806043
    },
    {
        "id": 6783,
        "name": "Estadio Municipal Nuevo Pepico Amat",
        "city": "Elda",
        "capacity": 5776,
        "latitude": 38.4675132,
        "longitude": -0.7967371999999999
    }
]