[
    {
        "id": 19939,
        "name": "Camp Nou",
        "city": "Barcelona",
        "capacity": 55926,
        "latitude": 41.380896,
        "longitude": 2.1228198
    },
    {
        "id": 19217,
        "name": "Estádio Cívitas Metropolitano",
        "city": "Madrid",
        "capacity": 70460,
        "latitude": 40.4362323,
        "longitude": -3.5994819
    },
    {
        "id": 1460,
        "name": "San Mamés Barria",
        "city": "Bilbao",
        "capacity": 53289,
        "latitude": 43.2641706,
        "longitude": -2.9493731
    },
    {
        "id": 1497,
        "name": "Estadio de Mestalla",
        "city": "Valencia",
        "capacity": 55000,
        "latitude": 39.4746556,
        "longitude": -0.3585902
    },
    {
        "id": 1498,
        "name": "Estadio de la Cerámica",
        "city": "Villarreal",
        "capacity": 24500,
        "latitude": 39.9438858,
        "longitude": -0.1031381
    },
    {
        "id": 1481,
        "name": "Estadio de Gran Canaria",
        "city": "Las Palmas de Gran Canaria",
        "capacity": 32392,
        "latitude": 28.1003684,
        "longitude": -15.4567013
    },
    {
        "id": 1494,
        "name": "Estadio Ramón Sánchez Pizjuán",
        "city": "Sevilla",
        "capacity": 48649,
        "latitude": 37.3840863,
        "longitude": -5.9709778
    },
    {
        "id": 1464,
        "name": "Estadio Municipal de Butarque",
        "city": "Leganés",
        "capacity": 12450,
        "latitude": 40.3404745,
        "longitude": -3.7606867
    },
    {
        "id": 1467,
        "name": "Abanca-Balaídos",
        "city": "Vigo",
        "capacity": 31800,
        "latitude": 42.2119201,
        "longitude": -8.73974
    },
    {
        "id": 20421,
        "name": "Stage Front Stadium",
        "city": "Cornella de Llobregat",
        "capacity": 40423,
        "latitude": 41.3481402,
        "longitude": 2.0745609
    },
    {
        "id": 1456,
        "name": "Estadio Santiago Bernabéu",
        "city": "Madrid",
        "capacity": 85454,
        "latitude": 40.4530196,
        "longitude": -3.6883748
    },
    {
        "id": 1470,
        "name": "Estadio de Mendizorroza",
        "city": "Vitoria-Gasteiz",
        "capacity": 19840,
        "latitude": 42.83708559999999,
        "longitude": -2.6882403
    },
    {
        "id": 1489,
        "name": "Estadio Benito Villamarín",
        "city": "Sevilla",
        "capacity": 60721,
        "latitude": 37.3564922,
        "longitude": -5.9817117
    },
    {
        "id": 20422,
        "name": "Estadio Coliseum",
        "city": "Getafe",
        "capacity": 17393,
        "latitude": 40.3257337,
        "longitude": -3.7149224
    },
    {
        "id": 1478,
        "name": "Estadi Municipal de Montilivi",
        "city": "Girona",
        "capacity": 14500,
        "latitude": 41.9610546,
        "longitude": 2.8277552
    },
    {
        "id": 1491,
        "name": "Reale Arena",
        "city": "Donostia-San Sebastián",
        "capacity": 40000,
        "latitude": 43.3013668,
        "longitude": -1.9735868
    },
    {
        "id": 1492,
        "name": "Estadio Municipal José Zorrilla",
        "city": "Valladolid",
        "capacity": 26512,
        "latitude": 41.6445864,
        "longitude": -4.761241900000001
    },
    {
        "id": 1486,
        "name": "Estadio El Sadar",
        "city": "Iruñea",
        "capacity": 23576,
        "latitude": 42.7966918,
        "longitude": -1.6371198
    },
    {
        "id": 1488,
        "name": "Estadio de Vallecas",
        "city": "Madrid",
        "capacity": 15500,
        "latitude": 40.3918305,
        "longitude": -3.6585975
    },
    {
        "id": 19940,
        "name": "Estadi Mallorca Son Moix",
        "city": "Palma de Mallorca",
        "capacity": 23142,
        "latitude": 39.589952,
        "longitude": 2.63005
    },
    {
        "id": 1483,
        "name": "Estadio La Rosaleda",
        "city": "Málaga",
        "capacity": 30389,
        "latitude": 36.7335802,
        "longitude": -4.426652
    },
    {
        "id": 1482,
        "name": "Estadio Ciudad de Valencia",
        "city": "Valencia",
        "capacity": 25534,
        "latitude": 39.4946891,
        "longitude": -0.3638225
    },
    {
        "id": 1471,
        "name": "Estadio Abanca-Riazor",
        "city": "La Coruña",
        "capacity": 34611,
        "latitude": 43.3683736,
        "longitude": -8.4171049
    },
    {
        "id": 1472,
        "name": "Estadio Municipal de Ipurúa",
        "city": "Eibar",
        "capacity": 8050,
        "latitude": 43.1817416,
        "longitude": -2.475868
    },
    {
        "id": 1469,
        "name": "Estadio Nuevo Arcángel",
        "city": "Córdoba",
        "capacity": 21822,
        "latitude": 37.8721706,
        "longitude": -4.7644367
    },
    {
        "id": 1479,
        "name": "Estadio Nuevo Los Cármenes",
        "city": "Granada",
        "capacity": 23156,
        "latitude": 37.1529018,
        "longitude": -3.5957356
    },
    {
        "id": 1490,
        "name": "Estadio Nuevo Carlos Tartiere",
        "city": "Oviedo",
        "capacity": 30500,
        "latitude": 43.360766,
        "longitude": -5.870241399999999
    },
    {
        "id": 22053,
        "name": "Estadio Heliodoro Rodríguez Lopéz",
        "city": "Santa Cruz de Tenerife (Tenerife)",
        "capacity": 23660,
        "latitude": 28.4632978,
        "longitude": -16.2605297
    },
    {
        "id": 1458,
        "name": "Estadio Carlos Belmonte",
        "city": "Albacete",
        "capacity": 17524,
        "latitude": 38.9809093,
        "longitude": -1.852882
    },
    {
        "id": 19216,
        "name": "Power Horse Stadium - Estadio de los Juegos Mediterráneos",
        "city": "Almería",
        "capacity": 21350,
        "latitude": 36.8400442,
        "longitude": -2.4354344
    },
    {
        "id": 11915,
        "name": "Estadio Nuevo Mirandilla",
        "city": "Cádiz",
        "capacity": 22000,
        "latitude": 36.502601,
        "longitude": -6.2729285
    },
    {
        "id": 1480,
        "name": "Estadio El Alcoraz",
        "city": "Huesca",
        "capacity": 9128,
        "latitude": 42.13188830000001,
        "longitude": -0.4247182
    },
    {
        "id": 1495,
        "name": "Estadio Municipal El Molinón",
        "city": "Gijón",
        "capacity": 29538,
        "latitude": 43.5362506,
        "longitude": -5.6374096
    },
    {
        "id": 1493,
        "name": "Estadio de la Romareda",
        "city": "Zaragoza",
        "capacity": 34596,
        "latitude": 41.6364449,
        "longitude": -0.9018404999999999
    },
    {
        "id": 1473,
        "name": "Estadio Manuel Martínez Valero",
        "city": "Elche",
        "capacity": 36017,
        "latitude": 38.2671385,
        "longitude": -0.6628111
    },
    {
        "id": 2920,
        "name": "Estadio Municipal de Anduva",
        "city": "Miranda de Ebro",
        "capacity": 6000,
        "latitude": 42.6808257,
        "longitude": -2.9353593
    },
    {
        "id": 3516,
        "name": "Campos de Sport de El Sardinero",
        "city": "Santander",
        "capacity": 22271,
        "latitude": 43.4762983,
        "longitude": -3.7932772
    },
    {
        "id": 3968,
        "name": "Nou Estadi Castalia",
        "city": "Castellón de la Plana",
        "capacity": 14485,
        "latitude": 39.9961111,
        "longitude": -0.0386111
    },
    {
        "id": 3976,
        "name": "Estadio Municipal Cartagonova",
        "city": "Cartagena",
        "capacity": 15105,
        "latitude": 37.6097329,
        "longitude": -0.9960534999999999
    },
    {
        "id": 6510,
        "name": "Estadio Municipal de A Malata",
        "city": "Ferrol",
        "capacity": 12043,
        "latitude": 43.4912266,
        "longitude": -8.2394125
    },
    {
        "id": 6674,
        "name": "Estadio Municipal de El Plantío",
        "city": "Burgos",
        "capacity": 12200,
        "latitude": 42.34426939999999,
        "longitude": -3.6806043
    },
    {
        "id": 6783,
        "name": "Estadio Municipal Nuevo Pepico Amat",
        "city": "Elda",
        "capacity": 5776,
        "latitude": 38.4675132,
        "longitude": -0.7967371999999999
    },
    {
        "id": 2917,
        "name": "Estadi Johan Cruyff",
        "city": "Sant Joan Despí",
        "capacity": 6000,
        "latitude": 41.3734833,
        "longitude": 2.0505585
    },
    {
        "id": 20300,
        "name": "Nou Estadi Costa Daurada",
        "city": "Tarragona",
        "capacity": 16600,
        "latitude": 41.127051,
        "longitude": 1.272851
    },
    {
        "id": 1465,
        "name": "Estadio Anxo Carro",
        "city": "Lugo",
        "capacity": 8168,
        "latitude": 43.0032743,
        "longitude": -7.570963799999999
    },
    {
        "id": 2916,
        "name": "Estadio Municipal Reino de León",
        "city": "León",
        "capacity": 13451,
        "latitude": 42.587534,
        "longitude": -5.576597599999999
    },
    {
        "id": 3708,
        "name": "Estadio El Toralín",
        "city": "Ponferrada",
        "capacity": 8800,
        "latitude": 42.557376,
        "longitude": -6.5998646
    },
    {
        "id": 3965,
        "name": "Estadio Nuevo Lasesarre",
        "city": "Barakaldo",
        "capacity": 7960,
        "latitude": 43.3019687,
        "longitude": -2.9891803
    },
    {
        "id": 19230,
        "name": "Campo de Futbol Reina Sofía",
        "city": "Salamanca",
        "capacity": 4895,
        "latitude": 40.9467537,
        "longitude": -5.6659769
    },
    {
        "id": 2618,
        "name": "Estadi Nacional",
        "city": "Andorra la Vella",
        "capacity": 3306,
        "latitude": 42.50467219999999,
        "longitude": 1.517565
    },
    {
        "id": 6482,
        "name": "Campo Municipal de Urritxe",
        "city": "Amorebieta-Echano",
        "capacity": 3000,
        "latitude": 43.2213871,
        "longitude": -2.7248347
    },
    {
        "id": 6489,
        "name": "Estadio Municipal de La Albuera",
        "city": "Segovia",
        "capacity": 3000,
        "latitude": 40.94139879999999,
        "longitude": -4.0998204
    },
    {
        "id": 6513,
        "name": "Estadio Las Llanas",
        "city": "Sestao",
        "capacity": 8905,
        "latitude": 43.3106429,
        "longitude": -3.0099847
    },
    {
        "id": 6516,
        "name": "Estadio Municipal de Tarazona",
        "city": "Tarazona",
        "capacity": 2200,
        "latitude": 41.90885859999999,
        "longitude": -1.71775
    },
    {
        "id": 6518,
        "name": "Estadio Ruta de la Plata",
        "city": "Zamora",
        "capacity": 7818,
        "latitude": 41.4866898,
        "longitude": -5.7477939
    },
    {
        "id": 6665,
        "name": "Campo de Fútbol Municipal de Barreiro",
        "city": "Vigo",
        "capacity": 4500,
        "latitude": 42.2287748,
        "longitude": -8.6809064
    },
    {
        "id": 12288,
        "name": "Instalaciones de Lezama Campo 2",
        "city": "Lezama",
        "capacity": 2925,
        "latitude": 43.2775097,
        "longitude": -2.8382526
    },
    {
        "id": 6677,
        "name": "Instalaciones Deportivas de Tajonar",
        "city": "Tajonar",
        "capacity": 4000,
        "latitude": 42.7759034,
        "longitude": -1.6257124
    },
    {
        "id": 20313,
        "name": "Instalaciones de Zubieta",
        "city": "Donostia-San Sebastián",
        "capacity": 1500,
        "latitude": 43.2589185,
        "longitude": -2.0259699
    },
    {
        "id": 6679,
        "name": "Estadio Gal",
        "city": "Irún",
        "capacity": 6344,
        "latitude": 43.3454522,
        "longitude": -1.7858345
    },
    {
        "id": 6697,
        "name": "Estadio de Espiñedo",
        "city": "O Carballiño",
        "capacity": 4500,
        "latitude": 42.42526489999999,
        "longitude": -8.08587
    },
    {
        "id": 6705,
        "name": "Estadio O Couto",
        "city": "Ourense",
        "capacity": 5625,
        "latitude": 42.3407884,
        "longitude": -7.8757958
    },
    {
        "id": 1457,
        "name": "Estadio Santo Domingo",
        "city": "Alcorcón",
        "capacity": 7000,
        "latitude": 40.3388592,
        "longitude": -3.8404714
    },
    {
        "id": 2919,
        "name": "Estadio Jesús Navas",
        "city": "Sevilla",
        "capacity": 7000,
        "latitude": 37.3523162,
        "longitude": -5.9470053
    },
    {
        "id": 3517,
        "name": "Estadio José Rico Pérez",
        "city": "Alicante",
        "capacity": 29584,
        "latitude": 38.3573154,
        "longitude": -0.4926576
    },
    {
        "id": 3707,
        "name": "Estadio Fernando Torres",
        "city": "Fuenlabrada",
        "capacity": 7500,
        "latitude": 40.2912539,
        "longitude": -3.8266366
    },
    {
        "id": 3981,
        "name": "Estadio Municipal Antonio Lorenzo Cuevas",
        "city": "Marbella",
        "capacity": 7300,
        "latitude": 36.5117742,
        "longitude": -4.8787907
    },
    {
        "id": 3989,
        "name": "Estadio Enrique Roca de Murcia",
        "city": "Murcia",
        "capacity": 31179,
        "latitude": 38.0422688,
        "longitude": -1.1452422
    },
    {
        "id": 3997,
        "name": "Estadio Municipal La Constitución",
        "city": "Yecla",
        "capacity": 4700,
        "latitude": 38.6085214,
        "longitude": -1.1068307
    },
    {
        "id": 20132,
        "name": "Ciudad Deportiva Antonio Solana",
        "city": "Alicante",
        "capacity": 4000,
        "latitude": 38.37863,
        "longitude": -0.4866816
    },
    {
        "id": 12463,
        "name": "Estadio Can Misses - Power Electronic",
        "city": "Ibiza",
        "capacity": 6500,
        "latitude": 38.9139282,
        "longitude": 1.4157596
    },
    {
        "id": 6511,
        "name": "Estadio Nuevo Colombino",
        "city": "Huelva",
        "capacity": 19860,
        "latitude": 37.24651850000001,
        "longitude": -6.9540336
    },
    {
        "id": 1487,
        "name": "Miniestadio Cerro del Espino",
        "city": "Majadahonda",
        "capacity": 3865,
        "latitude": 40.4575422,
        "longitude": -3.8602657
    },
    {
        "id": 6669,
        "name": "Estadio Alfredo Di Stéfano",
        "city": "Madrid",
        "capacity": 6500,
        "latitude": 40.47693,
        "longitude": -3.6142698
    },
    {
        "id": 6690,
        "name": "Estadio Nuevo Mirador",
        "city": "Algeciras",
        "capacity": 8209,
        "latitude": 36.1630173,
        "longitude": -5.4651517
    },
    {
        "id": 6694,
        "name": "Estadio El Palmar",
        "city": "Sanlúcar de Barrameda",
        "capacity": 5000,
        "latitude": 36.7670051,
        "longitude": -6.34774
    },
    {
        "id": 6777,
        "name": "Campo Municipal El Collao",
        "city": "Alcoy",
        "capacity": 4850,
        "latitude": 38.6910838,
        "longitude": -0.4903591
    },
    {
        "id": 6828,
        "name": "Estadio El Maulí",
        "city": "Antequera",
        "capacity": 7000,
        "latitude": 37.0205922,
        "longitude": -4.571806599999999
    },
    {
        "id": 6849,
        "name": "Ciudad Deportiva Luis de Sol",
        "city": "Sevilla",
        "capacity": 3000,
        "latitude": 37.3513473,
        "longitude": -5.9819412
    },
    {
        "id": 3969,
        "name": "Estadio Municipal Alfonso Murube",
        "city": "Ceuta",
        "capacity": 7000,
        "latitude": 35.8854565,
        "longitude": -5.3279087
    },
    {
        "id": 7132,
        "name": "Estadio Romano",
        "city": "Mérida",
        "capacity": 14600,
        "latitude": 38.9139943,
        "longitude": -6.3366035
    },
    {
        "id": 1485,
        "name": "Nuevo Estadio Los Pajaritos",
        "city": "Soria",
        "capacity": 9025,
        "latitude": 41.7553115,
        "longitude": -2.4678597
    },
    {
        "id": 3970,
        "name": "Estadio Multiusos de San Lázaro",
        "city": "Santiago de Compostela",
        "capacity": 14000,
        "latitude": 42.8827276,
        "longitude": -8.5160307
    },
    {
        "id": 3978,
        "name": "Estadio El Malecón",
        "city": "Torrelavega",
        "capacity": 6007,
        "latitude": 43.350446,
        "longitude": -4.0626991
    },
    {
        "id": 3979,
        "name": "Estadio Nuevo Ganzábal",
        "city": "La Felguera",
        "capacity": 4024,
        "latitude": 43.302009,
        "longitude": -5.6898173
    },
    {
        "id": 6485,
        "name": "Estadio As Eiroas",
        "city": "Carballo",
        "capacity": 5000,
        "latitude": 43.2353818,
        "longitude": -8.686929899999999
    },
    {
        "id": 6487,
        "name": "Campo do Vao",
        "city": "Vigo",
        "capacity": 1500,
        "latitude": 42.1955095,
        "longitude": -8.7930751
    },
    {
        "id": 6488,
        "name": "Estadio Eusebio Arce",
        "city": "Escobedo de Camargo",
        "capacity": 2000,
        "latitude": -23.5158812,
        "longitude": -47.4404671
    },
    {
        "id": 12287,
        "name": "Estadio Municipal Luis Ramos",
        "city": "Guijuelo",
        "capacity": 1800,
        "latitude": 40.5467702,
        "longitude": -5.6736767
    },
    {
        "id": 6496,
        "name": "Campo San Lorenzo",
        "city": "Laredo",
        "capacity": 2500,
        "latitude": 43.40722170000001,
        "longitude": -3.4153564
    },
    {
        "id": 6502,
        "name": "Estadi Municipal de Miramar",
        "city": "Luanco",
        "capacity": 5000,
        "latitude": 43.6130377,
        "longitude": -5.799894099999999
    },
    {
        "id": 6508,
        "name": "Estadio Municipal de Pasarón",
        "city": "Pontevedra",
        "capacity": 16500,
        "latitude": 42.4385649,
        "longitude": -8.6413797
    },
    {
        "id": 6680,
        "name": "Campo 1 Anexos del José Zorrilla hierba natural",
        "city": "Valladolid",
        "capacity": 1500,
        "latitude": 41.6440018,
        "longitude": -4.7635596
    },
    {
        "id": 6681,
        "name": "Estadio El Helmántico",
        "city": "Salamanca",
        "capacity": 17341,
        "latitude": 40.9955027,
        "longitude": -5.6650504
    },
    {
        "id": 6703,
        "name": "Ciudad Deportiva de Abegondo",
        "city": "La Coruña",
        "capacity": 2000,
        "latitude": 43.2509537,
        "longitude": -8.2843325
    },
    {
        "id": 6719,
        "name": "Campo Municipal de Fútbol Pepe Quimarán",
        "city": "Llanera",
        "capacity": 2500,
        "latitude": 43.4441664,
        "longitude": -5.856976200000001
    },
    {
        "id": 6724,
        "name": "Estadio Román Suárez Puerta",
        "city": "Avilés",
        "capacity": 5200,
        "latitude": 43.5575199,
        "longitude": -5.9305901
    },
    {
        "id": 6734,
        "name": "Estadio La Albericia",
        "city": "Santander",
        "capacity": 1100,
        "latitude": 43.4606214,
        "longitude": -3.8531778
    },
    {
        "id": 6824,
        "name": "Estadio Municipal Adolfo Suárez",
        "city": "Ávila",
        "capacity": 5500,
        "latitude": 40.6462458,
        "longitude": -4.701602299999999
    },
    {
        "id": 3977,
        "name": "Estadio Urbieta",
        "city": "Gernika-Lumo",
        "capacity": 3000,
        "latitude": 43.3227254,
        "longitude": -2.6756125
    },
    {
        "id": 3992,
        "name": "Estadio La Pinila",
        "city": "Teruel",
        "capacity": 5000,
        "latitude": 40.3323698,
        "longitude": -1.1069024
    },
    {
        "id": 3993,
        "name": "Estadio Municipal Ciudad de Tudela",
        "city": "Tudela",
        "capacity": 11000,
        "latitude": 42.0576953,
        "longitude": -1.6115651
    },
    {
        "id": 3994,
        "name": "Estadio Nuevo Municipal Las Gaunas",
        "city": "Logroño",
        "capacity": 16000,
        "latitude": 42.4532029,
        "longitude": -2.45337
    },
    {
        "id": 6672,
        "name": "Estadio Municipal de Gobela",
        "city": "Getxo",
        "capacity": 1221,
        "latitude": 43.33205590000001,
        "longitude": -3.0073197
    },
    {
        "id": 3966,
        "name": "Estadio La Planilla",
        "city": "Calahorra",
        "capacity": 5600,
        "latitude": 42.3048248,
        "longitude": -1.9759065
    },
    {
        "id": 6675,
        "name": "Ciudad Deportiva José Luis Compañón",
        "city": "Vitoria-Gasteiz",
        "capacity": 2500,
        "latitude": 42.83164559999999,
        "longitude": -2.7215201
    },
    {
        "id": 6676,
        "name": "Estadio Merkatondoa",
        "city": "Estella (Lizarra)",
        "capacity": 3500,
        "latitude": 42.6604637,
        "longitude": -2.029929
    },
    {
        "id": 6682,
        "name": "Estadio de Luchán",
        "city": "Ejea de los Caballeros",
        "capacity": 3000,
        "latitude": 42.1257313,
        "longitude": -1.1239344
    },
    {
        "id": 22052,
        "name": "Campo José Luis Orbegozo",
        "city": "Donostia-San Sebastián",
        "capacity": 2500,
        "latitude": 43.2594442,
        "longitude": -2.0256039
    },
    {
        "id": 6936,
        "name": "Estadio Sotoburu",
        "city": "Subiza",
        "capacity": 1000,
        "latitude": 42.7113113,
        "longitude": -1.6753915
    },
    {
        "id": 6940,
        "name": "Estadio La Molineta",
        "city": "Alfaro",
        "capacity": 5000,
        "latitude": 42.16726209999999,
        "longitude": -1.7480306
    },
    {
        "id": 6941,
        "name": "Estadio Isla Anguiano",
        "city": "Anguiano",
        "capacity": 1000,
        "latitude": 42.2641508,
        "longitude": -2.7659469
    },
    {
        "id": 6957,
        "name": "Estadio Municipal de Deportes",
        "city": "Barbastro",
        "capacity": 5000,
        "latitude": 42.03538220000001,
        "longitude": 0.1369352
    },
    {
        "id": 6965,
        "name": "Ciudad Deportiva del Real Zaragoza",
        "city": "Cuarte de Huerva",
        "capacity": 2500,
        "latitude": 41.59512400000001,
        "longitude": -0.9494248999999999
    },
    {
        "id": 6969,
        "name": "Estadio Santa Ana",
        "city": "Utebo",
        "capacity": 5000,
        "latitude": 41.7116793,
        "longitude": -0.9984310000000001
    },
    {
        "id": 21289,
        "name": "Complejo Deportivo de Unbe Inferior",
        "city": "Eibar",
        "capacity": 1000,
        "latitude": 43.1759452,
        "longitude": -2.4683427
    },
    {
        "id": 1466,
        "name": "Camp Municipal de Futbol Nou Sardenya",
        "city": "Barcelona",
        "capacity": 7000,
        "latitude": 41.4117301,
        "longitude": 2.1615738
    },
    {
        "id": 3964,
        "name": "Estadi Municipal de Badalona",
        "city": "Badalona",
        "capacity": 4384,
        "latitude": 41.4553122,
        "longitude": 2.23715
    },
    {
        "id": 3972,
        "name": "Campo Nuevo Municipal de Cornella",
        "city": "Cornella de Llobregat",
        "capacity": 2000,
        "latitude": 41.3476309,
        "longitude": 2.0735524
    },
    {
        "id": 3980,
        "name": "Camp d'Esports de Lleida",
        "city": "Lleida",
        "capacity": 13031,
        "latitude": 41.6212978,
        "longitude": 0.6142732
    },
    {
        "id": 3991,
        "name": "Camp Municipal Narcís Sala",
        "city": "Barcelona",
        "capacity": 6563,
        "latitude": 41.4288822,
        "longitude": 2.1930871
    },
    {
        "id": 12462,
        "name": "Camp Municipal Sa Plana",
        "city": "Andratx",
        "capacity": 5000,
        "latitude": 39.5715767,
        "longitude": 2.4125156
    },
    {
        "id": 6483,
        "name": "Estadio Balear",
        "city": "Palma de Mallorca",
        "capacity": 6000,
        "latitude": 39.5741283,
        "longitude": 2.6774635
    },
    {
        "id": 6504,
        "name": "Camp Municipal d'Olot",
        "city": "Olot",
        "capacity": 6000,
        "latitude": 42.1894464,
        "longitude": 2.4757272
    },
    {
        "id": 6506,
        "name": "Campo Municipal del Santa Eulalia del Río",
        "city": "Ibiza",
        "capacity": 1500,
        "latitude": 38.9252143,
        "longitude": 1.4561285
    },
    {
        "id": 6683,
        "name": "Ciutat Esportiva Dani Jarque",
        "city": "San Adrián de Besós",
        "capacity": 6000,
        "latitude": 41.4261665,
        "longitude": 2.2121362
    },
    {
        "id": 6686,
        "name": "Estadi de la Nova Creu Alta",
        "city": "Sabadell",
        "capacity": 14950,
        "latitude": 41.5546736,
        "longitude": 2.0911832
    },
    {
        "id": 12312,
        "name": "Estadio Antonio Puchades (Ciudad Deportiva Valencia)",
        "city": "Paterna",
        "capacity": 3500,
        "latitude": 39.2172375,
        "longitude": -0.3023079
    },
    {
        "id": 6772,
        "name": "Estadi Olímpic de Terrassa",
        "city": "Terrassa",
        "capacity": 11500,
        "latitude": 41.5761112,
        "longitude": 2.0102954
    },
    {
        "id": 6778,
        "name": "Estadio Luis Suñer Picó",
        "city": "Alzira",
        "capacity": 8000,
        "latitude": 39.1668115,
        "longitude": -0.4311812
    },
    {
        "id": 6782,
        "name": "Estadio José Díez Iborra (Ciudad Deportiva de Elche)",
        "city": "Elche",
        "capacity": 2000,
        "latitude": 38.2731648,
        "longitude": -0.6768105
    },
    {
        "id": 12463,
        "name": "Estadio Can Misses - Power Electronic",
        "city": "Ibiza",
        "capacity": 6500,
        "latitude": 38.9139282,
        "longitude": 1.4157596
    },
    {
        "id": 6865,
        "name": "Estadi Son Bibiloni (Antonio Asensio)",
        "city": "Palma de Mallorca",
        "capacity": 1500,
        "latitude": 39.6451791,
        "longitude": 2.6667109
    },
    {
        "id": 11014,
        "name": "Estadio San Gregorio",
        "city": "Torrent",
        "capacity": 4000,
        "latitude": 39.4315832,
        "longitude": -0.479955
    },
    {
        "id": 21291,
        "name": "Estadio BeSoccer La Condomina",
        "city": "Murcia",
        "capacity": 16500,
        "latitude": 37.9862099,
        "longitude": -1.1213617
    },
    {
        "id": 3973,
        "name": "Estadio Vicente Sanz",
        "city": "Don Benito",
        "capacity": 7000,
        "latitude": 38.9627421,
        "longitude": -5.8656605
    },
    {
        "id": 3996,
        "name": "Estadio Municipal Villanovense",
        "city": "Villanueva de la Serena",
        "capacity": 8000,
        "latitude": 38.9755933,
        "longitude": -5.7865125
    },
    {
        "id": 5459,
        "name": "Estadio Municipal",
        "city": "Lebrija",
        "capacity": 3500,
        "latitude": 36.9161284,
        "longitude": -6.081243199999999
    },
    {
        "id": 6500,
        "name": "Estadio Municipal de Linarejos",
        "city": "Linares",
        "capacity": 10000,
        "latitude": 38.1030995,
        "longitude": -3.6229856
    },
    {
        "id": 6505,
        "name": "Estadio Municipal Los Arcos",
        "city": "Orihuela",
        "capacity": 7000,
        "latitude": 38.083985,
        "longitude": -0.9410725
    },
    {
        "id": 6689,
        "name": "Estadio Municipal de La Línea de la Concepción",
        "city": "La Línea de la Concepción",
        "capacity": 18500,
        "latitude": 36.1585934,
        "longitude": -5.3405648
    },
    {
        "id": 6691,
        "name": "Campo Ramón Blanco Rodríguez",
        "city": "Puerto Real",
        "capacity": 2500,
        "latitude": 36.5316485,
        "longitude": -6.1831947
    },
    {
        "id": 6692,
        "name": "Ciudad Deportiva del Granada CF",
        "city": "Granada",
        "capacity": 1000,
        "latitude": 37.2083391,
        "longitude": -3.5963087
    },
    {
        "id": 6693,
        "name": "Estadio Iberoamericano 2010",
        "city": "San Fernando",
        "capacity": 12000,
        "latitude": 36.47006450000001,
        "longitude": -6.2067505
    },
    {
        "id": 19151,
        "name": "Anexo Estadio de los Juegos del Mediterráneo",
        "city": "Almería",
        "capacity": 2000,
        "latitude": 36.8390093,
        "longitude": -2.4372046
    },
    {
        "id": 6854,
        "name": "Estadio Municipal de Chapín",
        "city": "Jerez de la Frontera",
        "capacity": 20742,
        "latitude": 36.6893456,
        "longitude": -6.1205197
    },
    {
        "id": 6891,
        "name": "Estadio Municipal Ángel Celdrán",
        "city": "El Llano del Beal",
        "capacity": 2000,
        "latitude": 37.6272716,
        "longitude": -0.8366456999999999
    },
    {
        "id": 6903,
        "name": "Estadio El Rubial",
        "city": "Águilas",
        "capacity": 4000,
        "latitude": 37.4037154,
        "longitude": -1.5907668
    },
    {
        "id": 10980,
        "name": "Estadio Municipal",
        "city": "La Unión",
        "capacity": 3000,
        "latitude": -5.4074629,
        "longitude": -80.74715069999999
    },
    {
        "id": 11024,
        "name": "Estadio Municipal Francisco Muñoz Pérez",
        "city": "Estepona",
        "capacity": 7300,
        "latitude": 36.43180419999999,
        "longitude": -5.1591455
    },
    {
        "id": 11025,
        "name": "Campo Municipal El Pozuelo",
        "city": "Torremolinos",
        "capacity": 3000,
        "latitude": 36.62132,
        "longitude": -4.509932399999999
    },
    {
        "id": 3967,
        "name": "Estadio El Prado",
        "city": "Talavera de la Reina",
        "capacity": 6000,
        "latitude": 39.9655147,
        "longitude": -4.8219313
    },
    {
        "id": 3971,
        "name": "Estadio Municipal La Fuensanta",
        "city": "Cuenca",
        "capacity": 6700,
        "latitude": 40.076232,
        "longitude": -2.145785
    },
    {
        "id": 3982,
        "name": "Estadio Álvarez Claro",
        "city": "Melilla",
        "capacity": 12000,
        "latitude": 35.2851699,
        "longitude": -2.9493476
    },
    {
        "id": 3985,
        "name": "Campo de San Francisco",
        "city": "Reinosa",
        "capacity": 1500,
        "latitude": 43.0007151,
        "longitude": -4.1448664
    },
    {
        "id": 6486,
        "name": "Estadio Príncipe Felipe",
        "city": "Cáceres",
        "capacity": 15000,
        "latitude": 39.4871349,
        "longitude": -6.412344000000001
    },
    {
        "id": 6512,
        "name": "Estadio Municipal Nuevo Matapiñonera",
        "city": "San Sebastián de los Reyes",
        "capacity": 3000,
        "latitude": 40.5452839,
        "longitude": -3.6160184
    },
    {
        "id": 19145,
        "name": "Ciudad Deportiva de Getafe - Campo 1",
        "city": "Getafe",
        "capacity": 1200,
        "latitude": 40.3246934,
        "longitude": -3.7142934
    },
    {
        "id": 6801,
        "name": "Estadio Municipal de El Soto",
        "city": "Móstoles",
        "capacity": 14000,
        "latitude": 40.325986,
        "longitude": -3.8941098
    },
    {
        "id": 20197,
        "name": "Centro Deportivo Municipal Vicente del Bosque",
        "city": "Madrid",
        "capacity": 2000,
        "latitude": 40.4788047,
        "longitude": -3.6935194
    },
    {
        "id": 6873,
        "name": "Campo Municipal de El Paso",
        "city": "El Paso",
        "capacity": 5000,
        "latitude": 28.6474024,
        "longitude": -17.8840098
    },
    {
        "id": 12339,
        "name": "Centro Insular de Atletismo de Tenerife",
        "city": "Santa Cruz de Tenerife",
        "capacity": 4000,
        "latitude": 28.4462031,
        "longitude": -16.3067469
    },
    {
        "id": 6907,
        "name": "Estadio La Isla",
        "city": "Coria",
        "capacity": 4389,
        "latitude": 39.9783455,
        "longitude": -6.5427873
    },
    {
        "id": 6978,
        "name": "Estadio Pedro Escartín",
        "city": "Guadalajara",
        "capacity": 7000,
        "latitude": 40.633437,
        "longitude": -3.1830623
    },
    {
        "id": 6979,
        "name": "Estadio Municipal de Illescas",
        "city": "Illescas",
        "capacity": 1000,
        "latitude": 40.1266276,
        "longitude": -3.8414233
    },
    {
        "id": 12321,
        "name": "Estadio Román Valero",
        "city": "Madrid",
        "capacity": 14000,
        "latitude": 40.3884806,
        "longitude": -3.7052066
    },
    {
        "id": 12342,
        "name": "Estadio Municipal de Yaiza",
        "city": "Yaiza (Lanzarote)",
        "capacity": 2000,
        "latitude": 28.9532051,
        "longitude": -13.7773656
    },
    {
        "id": 20161,
        "name": "Ciudad Real Madrid Campo 3",
        "city": "Madrid",
        "capacity": 3000,
        "latitude": 40.4810231,
        "longitude": -3.6152865
    },
    {
        "id": 6696,
        "name": "Campo do Morrazo",
        "city": "Cangas",
        "capacity": 4000,
        "latitude": 42.2691001,
        "longitude": -8.781767799999999
    },
    {
        "id": 6698,
        "name": "Estadio A Lomba",
        "city": "Vilagarcía de Arousa",
        "capacity": 5000,
        "latitude": 42.5885537,
        "longitude": -8.7661185
    },
    {
        "id": 6704,
        "name": "Campo Municipal do Concello da Estrada",
        "city": "A Estrada",
        "capacity": 2000,
        "latitude": 42.6897945,
        "longitude": -8.5068428
    },
    {
        "id": 6707,
        "name": "Estadio do Polvorín",
        "city": "Lugo",
        "capacity": 2500,
        "latitude": 43.00223889999999,
        "longitude": -7.548778500000001
    },
    {
        "id": 6708,
        "name": "Campo Municipal de Fútbol Rodrigo García Vizoso",
        "city": "A Coruña (La Coruña)",
        "capacity": 3000,
        "latitude": 43.3522434,
        "longitude": -8.423051899999999
    },
    {
        "id": 6709,
        "name": "Estadio Alcalde Manuel Candocia",
        "city": "As Somozas",
        "capacity": 800,
        "latitude": -21.6344808,
        "longitude": -41.0443978
    },
    {
        "id": 6705,
        "name": "Estadio O Couto",
        "city": "Ourense",
        "capacity": 5625,
        "latitude": 42.3407884,
        "longitude": -7.8757958
    },
    {
        "id": 6710,
        "name": "Estadio Municipal A Magdalena",
        "city": "Villalba",
        "capacity": 2000,
        "latitude": 43.3033431,
        "longitude": -7.691048599999999
    },
    {
        "id": 10971,
        "name": "Estadio Municipal de Cantarrana",
        "city": "Viveiro",
        "capacity": 2000,
        "latitude": 43.669117,
        "longitude": -7.603024799999999
    },
    {
        "id": 22472,
        "name": "Estadio San Lázaro",
        "city": "Noia",
        "capacity": 1000,
        "latitude": 42.7771457,
        "longitude": -8.8851751
    },
    {
        "id": 19133,
        "name": "Estadio Municipal Arteixo",
        "city": "Arteixo",
        "capacity": 1000,
        "latitude": 43.3108132,
        "longitude": -8.5088518
    },
    {
        "id": 6665,
        "name": "Campo de Fútbol Municipal de Barreiro",
        "city": "Vigo",
        "capacity": 4500,
        "latitude": 42.2287748,
        "longitude": -8.6809064
    },
    {
        "id": 19294,
        "name": "Estadio Os Carrís",
        "city": "Barbadás",
        "capacity": 1500,
        "latitude": 42.3119006,
        "longitude": -7.8815237
    },
    {
        "id": 20150,
        "name": "Estadio García Hermanos",
        "city": "Betanzos",
        "capacity": 5000,
        "latitude": 43.2785658,
        "longitude": -8.2174064
    },
    {
        "id": 20151,
        "name": "Estadio Municipal De Ribela",
        "city": "Sarria",
        "capacity": 5000,
        "latitude": 42.7682529,
        "longitude": -7.4123406
    },
    {
        "id": 20359,
        "name": "Campo Municipal de Barraña",
        "city": "Boiro",
        "capacity": 2500,
        "latitude": 42.6389898,
        "longitude": -8.879302700000002
    },
    {
        "id": 8912798127312,
        "name": "Clube Desportivo Valadares",
        "city": "Pontevedra",
        "capacity": null,
        "latitude": 42.16297400000001,
        "longitude": -8.7242603
    },
    {
        "id": 21102,
        "name": "Estadio Novo San Pedro",
        "city": "Sanxenxo",
        "capacity": 2000,
        "latitude": 42.4420006,
        "longitude": -8.8359399
    },
    {
        "id": 5787,
        "name": "Campo de La Corredoria",
        "city": "Posada de Llanes",
        "capacity": 1700,
        "latitude": 43.4250068,
        "longitude": -4.8563518
    },
    {
        "id": 6498,
        "name": "Estadio Las Callejas",
        "city": "Villaviciosa",
        "capacity": 3000,
        "latitude": 43.4859494,
        "longitude": -5.4320486
    },
    {
        "id": 6670,
        "name": "Estadio El Requexón",
        "city": "Oviedo",
        "capacity": 3000,
        "latitude": 43.4150214,
        "longitude": -5.8235183
    },
    {
        "id": 6671,
        "name": "Escuela de Fútbol de Mareo",
        "city": "Gijón",
        "capacity": 3000,
        "latitude": 43.49595679999999,
        "longitude": -5.681742
    },
    {
        "id": 6711,
        "name": "Estadio Municipal Hermanos Antuña",
        "city": "Mieres del Camino",
        "capacity": 7500,
        "latitude": 43.2565784,
        "longitude": -5.7802503
    },
    {
        "id": 6712,
        "name": "Estadio La Cruz",
        "city": "Gijón",
        "capacity": 1500,
        "latitude": 43.5293112,
        "longitude": -5.6553683
    },
    {
        "id": 6713,
        "name": "Estadio Santianes",
        "city": "Colunga",
        "capacity": 1000,
        "latitude": 43.490791,
        "longitude": -5.268672599999999
    },
    {
        "id": 6714,
        "name": "Estadio Alejandro Ortea",
        "city": "Noreña",
        "capacity": 2000,
        "latitude": 43.3920232,
        "longitude": -5.7043361
    },
    {
        "id": 6715,
        "name": "Estadio Juan Antonio Alvarez Rabanal",
        "city": "Oviedo",
        "capacity": 2000,
        "latitude": 43.3783739,
        "longitude": -5.8364157
    },
    {
        "id": 6717,
        "name": "Estadio Nuevo Nalón",
        "city": "El Entrego",
        "capacity": 1200,
        "latitude": 43.2872703,
        "longitude": -5.6480063
    },
    {
        "id": 12698,
        "name": "Estadio ALTOSDEMONTECERRAO.COM - El Sotón",
        "city": "Pola de Lena",
        "capacity": 3000,
        "latitude": 43.1492586,
        "longitude": -5.823551800000001
    },
    {
        "id": 6721,
        "name": "Estadio Marqués de La Vega de Anzo",
        "city": "Grado",
        "capacity": 4000,
        "latitude": 43.3828209,
        "longitude": -6.075706299999999
    },
    {
        "id": 6723,
        "name": "Estadio Santa Catalina",
        "city": "Pravia",
        "capacity": 2000,
        "latitude": 43.494573,
        "longitude": -6.1173034
    },
    {
        "id": 6725,
        "name": "Estadio El Florán",
        "city": "San Martín del Rey Aurelio",
        "capacity": 5000,
        "latitude": 43.2753985,
        "longitude": -5.5951001
    },
    {
        "id": 6727,
        "name": "Estadio El Candín",
        "city": "Tuilla",
        "capacity": 2800,
        "latitude": 42.557376,
        "longitude": -6.5998646
    },
    {
        "id": 10997,
        "name": "Campo Muro de Zaro",
        "city": "Avilés",
        "capacity": 5352,
        "latitude": 43.54731169999999,
        "longitude": -5.89848
    },
    {
        "id": 10998,
        "name": "Estadio De Fútbol Las Tolvas",
        "city": "Pola de Laviana",
        "capacity": 1500,
        "latitude": 43.251985,
        "longitude": -5.5675129
    },
    {
        "id": 12302,
        "name": "Campo de Fútbol Covadonga",
        "city": "Gijón",
        "capacity": 1000,
        "latitude": 43.5194193,
        "longitude": -5.675621
    },
    {
        "id": 5775,
        "name": "Estadio El Castañar",
        "city": "San Vicente de la Barquera",
        "capacity": 3500,
        "latitude": 43.3883934,
        "longitude": -4.399894199999999
    },
    {
        "id": 6729,
        "name": "Estadio Juan Hormaechea",
        "city": "Santander",
        "capacity": 1000,
        "latitude": 43.4623834,
        "longitude": -3.848798599999999
    },
    {
        "id": 6730,
        "name": "Estadio Solvay",
        "city": "Torrelavega",
        "capacity": 5100,
        "latitude": 43.3761467,
        "longitude": -4.043818
    },
    {
        "id": 20153,
        "name": "Campo De Fútbol Municipal De Bezana",
        "city": "Santa Cruz de Bezana",
        "capacity": 3500,
        "latitude": 43.4399986,
        "longitude": -3.9034233
    },
    {
        "id": 6733,
        "name": "Estadio El Pilar",
        "city": "Guarnizo",
        "capacity": 5625,
        "latitude": 43.39347679999999,
        "longitude": -3.8560751
    },
    {
        "id": 6737,
        "name": "Campo San Pedro",
        "city": "Castillo Siete Villas",
        "capacity": 500,
        "latitude": 43.45914339999999,
        "longitude": -3.5559094
    },
    {
        "id": 6739,
        "name": "Estadio Vallegon",
        "city": "Cantabria",
        "capacity": 1000,
        "latitude": 43.34776919999999,
        "longitude": -3.2372255
    },
    {
        "id": 6741,
        "name": "Estadio Municipal Bárcena de Pie de Concha",
        "city": "Bárcena de Pie de Concha",
        "capacity": 2000,
        "latitude": 43.1262963,
        "longitude": -4.0536637
    },
    {
        "id": 6742,
        "name": "Campo Municipal Santa Ana",
        "city": "Torrelavega",
        "capacity": 1500,
        "latitude": 43.330665,
        "longitude": -4.0475372
    },
    {
        "id": 6743,
        "name": "Estadio La Vidriera",
        "city": "Vioño de Piélagos",
        "capacity": 1600,
        "latitude": 43.3567609,
        "longitude": -3.9676647
    },
    {
        "id": 11000,
        "name": "Campo Riomar",
        "city": "Castro Urdiales",
        "capacity": 4000,
        "latitude": 43.3707347,
        "longitude": -3.2097968
    },
    {
        "id": 11001,
        "name": "Estadio Municipal",
        "city": "Revilla de Camargo",
        "capacity": 1000,
        "latitude": 43.407021,
        "longitude": -3.8603717
    },
    {
        "id": 11003,
        "name": "Estadio Fernando Astobiza",
        "city": "Sarón",
        "capacity": 2700,
        "latitude": 43.3206424,
        "longitude": -3.8564835
    },
    {
        "id": 12305,
        "name": "Campos del Carmen",
        "city": "Colindres",
        "capacity": 2500,
        "latitude": 43.3957736,
        "longitude": -3.4484057
    },
    {
        "id": 12306,
        "name": "Estadio Ramón Unzaga Asla",
        "city": "Talcahuano",
        "capacity": 7142,
        "latitude": -36.7227032,
        "longitude": -73.1073509
    },
    {
        "id": 19136,
        "name": "Estadio Santa María",
        "city": "Bárcena de Cicero",
        "capacity": 500,
        "latitude": 36.4991798,
        "longitude": -4.7783699
    },
    {
        "id": 2182137821,
        "name": "Football field Puente San Miguel",
        "city": "Puente San Miguel",
        "capacity": 4000,
        "latitude": 43.364442,
        "longitude": -4.0854737
    },
    {
        "id": 871281871,
        "name": "Club Deportivo Monte",
        "city": "Monte",
        "capacity": 2000,
        "latitude": 43.4669051,
        "longitude": -3.8255943
    },
    {
        "id": 3974,
        "name": "Estadio Tabira",
        "city": "Durango",
        "capacity": 1500,
        "latitude": 43.158123,
        "longitude": -2.6348671
    },
    {
        "id": 6499,
        "name": "Estadio Sarriena",
        "city": "Leioa",
        "capacity": 3500,
        "latitude": 43.3349467,
        "longitude": -2.9820076
    },
    {
        "id": 6509,
        "name": "Estadio La Florida",
        "city": "Portugalete",
        "capacity": 5000,
        "latitude": 43.318259,
        "longitude": -3.026261
    },
    {
        "id": 11005,
        "name": "Estadio Artunduaga",
        "city": "Basauri",
        "capacity": 5000,
        "latitude": 43.23193270000001,
        "longitude": -2.8837543
    },
    {
        "id": 6748,
        "name": "Estado Municipal de Loinaz",
        "city": "Beasain",
        "capacity": 6000,
        "latitude": 43.0466039,
        "longitude": -2.2134209
    },
    {
        "id": 6749,
        "name": "Campo de Fútbol de Etxezuri",
        "city": "Bilbao",
        "capacity": 1000,
        "latitude": 43.2714515,
        "longitude": -2.9562828
    },
    {
        "id": 6751,
        "name": "Estadio Garmendipe",
        "city": "Azpeitia",
        "capacity": 1500,
        "latitude": 43.1790365,
        "longitude": -2.262347
    },
    {
        "id": 22474,
        "name": "Campo de fútbol Jesus Mari Zamora",
        "city": "Errenteria",
        "capacity": 2000,
        "latitude": 43.3155874,
        "longitude": -1.9116136
    },
    {
        "id": 21288,
        "name": "Campo de fútbol Los Astrónomos",
        "city": "Gasteiz",
        "capacity": 1000,
        "latitude": 42.8437661,
        "longitude": -2.6548281
    },
    {
        "id": 6755,
        "name": "Estadio San Jorge",
        "city": "Santurtzi",
        "capacity": 2000,
        "latitude": 43.3240769,
        "longitude": -3.038334
    },
    {
        "id": 6758,
        "name": "Estadio Iparralde",
        "city": "Urduliz",
        "capacity": 2000,
        "latitude": 43.37473050000001,
        "longitude": -2.9520285
    },
    {
        "id": 19137,
        "name": "Estadio Santo Cristo",
        "city": "Arrigorriaga",
        "capacity": 1500,
        "latitude": 43.2099103,
        "longitude": -2.8940516
    },
    {
        "id": 19138,
        "name": "Campo de Fútbol Fandería",
        "city": "Errenteria",
        "capacity": 1500,
        "latitude": 43.3100628,
        "longitude": -1.8944141
    },
    {
        "id": 22475,
        "name": "Ciudad Deportiva José Luis Compañón 4",
        "city": "Vitoria-Gasteiz",
        "capacity": 1000,
        "latitude": 42.83164559999999,
        "longitude": -2.7215201
    },
    {
        "id": 20155,
        "name": "Campo de Fútbol Ibaiondo",
        "city": "Derio",
        "capacity": 1500,
        "latitude": 43.2961219,
        "longitude": -2.8804066
    },
    {
        "id": 21078,
        "name": "Campo de Fútbol Ibarra",
        "city": "Aretxabaleta (Arechavaleta)",
        "capacity": 1000,
        "latitude": 43.0294734,
        "longitude": -2.5079362
    },
    {
        "id": 21290,
        "name": "Campo San Viator",
        "city": "Vitoria-Gasteiz",
        "capacity": 1000,
        "latitude": 42.855051,
        "longitude": -2.6834884
    },
    {
        "id": 22476,
        "name": "Ciudad Deportiva Eibar-Areitio",
        "city": "Mallabia",
        "capacity": 1000,
        "latitude": 43.1836833,
        "longitude": -2.5350939
    },
    {
        "id": 6494,
        "name": "Estadio Municipal de Hospitalet de Llobregat",
        "city": "L&apos;Hospitalet de Llobregat",
        "capacity": 6740,
        "latitude": 41.3471093,
        "longitude": 2.1018477
    },
    {
        "id": 6685,
        "name": "Estadio Municipal Sagnier",
        "city": "El Prat de Llobregat",
        "capacity": 500,
        "latitude": 41.3218186,
        "longitude": 2.08306
    },
    {
        "id": 6761,
        "name": "Estadio Municipal Les Fontetes",
        "city": "Cerdanyola del Vallès",
        "capacity": 1000,
        "latitude": 41.48621139999999,
        "longitude": 2.1444035
    },
    {
        "id": 6766,
        "name": "Estadio El Congost",
        "city": "Manresa",
        "capacity": 3660,
        "latitude": 41.7227419,
        "longitude": 1.8129513
    },
    {
        "id": 6767,
        "name": "Estadio Municipal de Peralada",
        "city": "Peralada",
        "capacity": 1500,
        "latitude": 42.311104,
        "longitude": 3.013331
    },
    {
        "id": 22480,
        "name": "Estadio Panamericano",
        "city": "San Cristóbal",
        "capacity": 2800,
        "latitude": 18.4147536,
        "longitude": -70.1198272
    },
    {
        "id": 6774,
        "name": "Estadio Municipal Xevi Ramon",
        "city": "Vilassar de Mar",
        "capacity": 3000,
        "latitude": 41.5095874,
        "longitude": 2.3939569
    },
    {
        "id": 11009,
        "name": "Camp de Futbol Torres de Palau",
        "city": "Girona",
        "capacity": 1000,
        "latitude": 41.9572873,
        "longitude": 2.8253989
    },
    {
        "id": 11010,
        "name": "Nou Camp Municipal de Santa Coloma",
        "city": "Santa Coloma de Gramenet",
        "capacity": 5000,
        "latitude": 41.4435337,
        "longitude": 2.2096744
    },
    {
        "id": 11011,
        "name": "Estadio Municipal de Nou Barris",
        "city": "Barcelona",
        "capacity": 3000,
        "latitude": 41.4375945,
        "longitude": 2.1837498
    },
    {
        "id": 20156,
        "name": "Estadi Municipal",
        "city": "L&apos;Escala",
        "capacity": 1000,
        "latitude": -21.7400878,
        "longitude": -48.685546
    },
    {
        "id": 20157,
        "name": "Camp Municipal d'Esports",
        "city": "Mollerussa",
        "capacity": 4000,
        "latitude": 41.6227373,
        "longitude": 0.8927982
    },
    {
        "id": 3964,
        "name": "Estadi Municipal de Badalona",
        "city": "Badalona",
        "capacity": 4384,
        "latitude": 41.4553122,
        "longitude": 2.23715
    },
    {
        "id": 19140,
        "name": "Estadio Municipal Tona",
        "city": "Tona",
        "capacity": 2000,
        "latitude": -21.5547338,
        "longitude": -47.699844
    },
    {
        "id": 1468,
        "name": "Estadio Camp Nou Municipal",
        "city": "Reus",
        "capacity": 4847,
        "latitude": 41.1563639,
        "longitude": 1.0857587
    },
    {
        "id": 21089,
        "name": "Camp de futbol Ramon Farrús",
        "city": "Lleida",
        "capacity": 1000,
        "latitude": 41.60834029999999,
        "longitude": 0.6306691
    },
    {
        "id": 1466,
        "name": "Camp Municipal de Futbol Nou Sardenya",
        "city": "Barcelona",
        "capacity": 7000,
        "latitude": 41.4117301,
        "longitude": 2.1615738
    },
    {
        "id": 6686,
        "name": "Estadi de la Nova Creu Alta",
        "city": "Sabadell",
        "capacity": 14950,
        "latitude": 41.5546736,
        "longitude": 2.0911832
    },
    {
        "id": 12723,
        "name": "Estadi Olímpic Camilo Cano",
        "city": "La Nucia",
        "capacity": 7000,
        "latitude": 38.6046462,
        "longitude": -0.1221267
    },
    {
        "id": 6684,
        "name": "Ciudad Deportiva de Buñol - Campo 1",
        "city": "Buñol",
        "capacity": 3000,
        "latitude": 39.4303354,
        "longitude": -0.7752667
    },
    {
        "id": 6775,
        "name": "Ciudad Deportiva Pamesa Cerámica",
        "city": "Villarreal",
        "capacity": 5000,
        "latitude": 39.9267972,
        "longitude": -0.1007437
    },
    {
        "id": 6779,
        "name": "Campo De Futbol El Regit",
        "city": "Atzeneta d&apos;Albaida",
        "capacity": 5000,
        "latitude": 38.82815550000001,
        "longitude": -0.4980398999999999
    },
    {
        "id": 6781,
        "name": "Estadio Enrique Miralles",
        "city": "Crevillent",
        "capacity": 3500,
        "latitude": 38.2520545,
        "longitude": -0.8017253999999999
    },
    {
        "id": 6785,
        "name": "Ciudad Deportiva de San Vicente del Raspeig",
        "city": "San Vicente del Raspeig",
        "capacity": 3800,
        "latitude": 38.4033951,
        "longitude": -0.5224101999999999
    },
    {
        "id": 6790,
        "name": "Estadio Nou Camp de Morvedre",
        "city": "Sagunt",
        "capacity": 4000,
        "latitude": 39.6802636,
        "longitude": -0.2931658
    },
    {
        "id": 12315,
        "name": "Polideportivo Isabel Fernández",
        "city": "Torrellano",
        "capacity": 2000,
        "latitude": 38.2907087,
        "longitude": -0.5884052
    },
    {
        "id": 12317,
        "name": "Ciudad Deportiva FACSA",
        "city": "Castellón de la Plana",
        "capacity": 1000,
        "latitude": 40.0311187,
        "longitude": -0.0149774
    },
    {
        "id": 19142,
        "name": "Campo Municipal de la Patacona",
        "city": "Alboraya",
        "capacity": 1000,
        "latitude": 39.4879427,
        "longitude": -0.3296167
    },
    {
        "id": 19143,
        "name": "Estadio Francisco Vilaplana Mariel",
        "city": "Alicante",
        "capacity": 11000,
        "latitude": 38.6168229,
        "longitude": -0.5912658
    },
    {
        "id": 20352,
        "name": "Camp Poliesportiu Municipal Antonio Escuriet",
        "city": "Castelló",
        "capacity": 1500,
        "latitude": 39.07436750000001,
        "longitude": -0.5169429
    },
    {
        "id": 3986,
        "name": "Estadio Municipal El Clariano",
        "city": "Ontinyent",
        "capacity": 5000,
        "latitude": 38.825663,
        "longitude": -0.5912662
    },
    {
        "id": 21188,
        "name": "Camp El Arco",
        "city": "Soneja",
        "capacity": 1000,
        "latitude": 39.8172203,
        "longitude": -0.4362214
    },
    {
        "id": 20160,
        "name": "Estadio Muncipal La Celadilla",
        "city": "Utiel",
        "capacity": 2500,
        "latitude": 39.5748855,
        "longitude": -1.2131113
    },
    {
        "id": 781238127361,
        "name": "Estadio Municipal Guillermo AMOR",
        "city": "Benidorm",
        "capacity": 9000,
        "latitude": 38.5473637,
        "longitude": -0.1379684
    },
    {
        "id": 328472394823,
        "name": "Estadio Municipal José Mangriñán",
        "city": "La Vall d'Uixó",
        "capacity": 4000,
        "latitude": 39.8125175,
        "longitude": -0.2304406
    },
    {
        "id": 5779,
        "name": "Estadio Facundo Rivas",
        "city": "El Álamo",
        "capacity": 4000,
        "latitude": 40.2265777,
        "longitude": -3.9874761
    },
    {
        "id": 19144,
        "name": "Polideportivo Dehesa de Navalcarbón 2",
        "city": "Las Rozas de Madrid",
        "capacity": 1000,
        "latitude": 40.5084645,
        "longitude": -3.8878566
    },
    {
        "id": 6794,
        "name": "Estadio Los Prados",
        "city": "Parla",
        "capacity": 4000,
        "latitude": 40.225154,
        "longitude": -3.7669657
    },
    {
        "id": 19146,
        "name": "Campos Municipales Valle de la Oliva",
        "city": "Majadahonda",
        "capacity": 1000,
        "latitude": 40.4558049,
        "longitude": -3.8643397
    },
    {
        "id": 6796,
        "name": "Campo 2 Alcorcón",
        "city": "Alcorcón",
        "capacity": 1200,
        "latitude": 40.337414,
        "longitude": -3.8402739
    },
    {
        "id": 6798,
        "name": "Estadio La Mina de Carabanchel",
        "city": "Madrid",
        "capacity": 6000,
        "latitude": 40.3821801,
        "longitude": -3.745775
    },
    {
        "id": 6800,
        "name": "Estadio Anexo Butarque",
        "city": "Leganés",
        "capacity": 2000,
        "latitude": 40.3404745,
        "longitude": -3.7606867
    },
    {
        "id": 6803,
        "name": "Estadio Municipal Virgen del Val",
        "city": "Alcalá de Henares",
        "capacity": 8000,
        "latitude": 40.4827923,
        "longitude": -3.3471179
    },
    {
        "id": 19147,
        "name": "Ciudad Deportiva Rayo Vallecano Campo 2",
        "city": "Madrid",
        "capacity": 1000,
        "latitude": 40.3770003,
        "longitude": -3.612635
    },
    {
        "id": 6806,
        "name": "Estadio Las Veredillas",
        "city": "Torrejón de Ardoz",
        "capacity": 1300,
        "latitude": 40.4656734,
        "longitude": -3.4725022
    },
    {
        "id": 6807,
        "name": "Estadio La Canaleja",
        "city": "Alcorcón",
        "capacity": 2000,
        "latitude": 40.35966519999999,
        "longitude": -3.808163099999999
    },
    {
        "id": 6809,
        "name": "Estadio Boetticher",
        "city": "Madrid",
        "capacity": 500,
        "latitude": 40.3484018,
        "longitude": -3.6990036
    },
    {
        "id": 12318,
        "name": "Estadio Galapagar",
        "city": "Madrid",
        "capacity": 1000,
        "latitude": 40.5816853,
        "longitude": -4.0097045
    },
    {
        "id": 12319,
        "name": "Campo Municipal de Fútbol Foresta A",
        "city": "Tres Cantos",
        "capacity": 2000,
        "latitude": 40.6113034,
        "longitude": -3.704523
    },
    {
        "id": 19148,
        "name": "Estadio Canillas",
        "city": "Madrid",
        "capacity": 1000,
        "latitude": 40.46878969999999,
        "longitude": -3.6487364
    },
    {
        "id": 19149,
        "name": "Ciudad Deportiva Collado Villalba",
        "city": "Collado Villalba",
        "capacity": 2000,
        "latitude": 40.6421131,
        "longitude": -4.0027594
    },
    {
        "id": 21151,
        "name": "Estadio Antonio Sanfíz",
        "city": "Madrid",
        "capacity": 800,
        "latitude": 40.4582606,
        "longitude": -3.7782177
    },
    {
        "id": 3248972349823,
        "name": "Agrupación Deportiva Cala Pozuelo",
        "city": "Pozuelo de Alarcón",
        "capacity": 1000,
        "latitude": 40.441256,
        "longitude": -3.8158893
    },
    {
        "id": 5776,
        "name": "Estadio Mariano Haro",
        "city": "Becerril de Campos",
        "capacity": 2000,
        "latitude": 42.1088014,
        "longitude": -4.6469097
    },
    {
        "id": 6810,
        "name": "Estadio Municipal de la Arboleda",
        "city": "Almazán",
        "capacity": 2000,
        "latitude": -25.2575239,
        "longitude": -57.5751497
    },
    {
        "id": 6811,
        "name": "Estadio El Montecillo",
        "city": "Aranda de Duero",
        "capacity": 10000,
        "latitude": 41.6662326,
        "longitude": -3.6991052
    },
    {
        "id": 6812,
        "name": "Estadio La Eragudina",
        "city": "Astorga",
        "capacity": 2332,
        "latitude": 42.4510131,
        "longitude": -6.0554407
    },
    {
        "id": 6813,
        "name": "Estadio Las Salinas",
        "city": "Tordesillas",
        "capacity": 3500,
        "latitude": -39.0963457,
        "longitude": -72.6910171
    },
    {
        "id": 22522,
        "name": "Campo Municipal Jesús Esteban Rodríguez 1",
        "city": "Bembibre",
        "capacity": 1500,
        "latitude": 42.6118873,
        "longitude": -6.4246466
    },
    {
        "id": 6816,
        "name": "Ciudad Deportiva de Castañares",
        "city": "Burgos",
        "capacity": 1000,
        "latitude": 42.3402099,
        "longitude": -3.6238274
    },
    {
        "id": 6817,
        "name": "Estadio La Nueva Balastera",
        "city": "Palencia",
        "capacity": 12500,
        "latitude": 42.0118394,
        "longitude": -4.5161855
    },
    {
        "id": 6818,
        "name": "Área Deportiva Municipal Puente Castro",
        "city": "León",
        "capacity": 10000,
        "latitude": 42.5747815,
        "longitude": -5.5621066
    },
    {
        "id": 6821,
        "name": "Campo Los Dominicos",
        "city": "La Virgen Del Camino",
        "capacity": 1500,
        "latitude": 42.5774965,
        "longitude": -5.6382634
    },
    {
        "id": 2920,
        "name": "Estadio Municipal de Anduva",
        "city": "Miranda de Ebro",
        "capacity": 6000,
        "latitude": 42.6808257,
        "longitude": -2.9353593
    },
    {
        "id": 6825,
        "name": "Estadio Municipal Alfonso San Casto",
        "city": "Santa Marta de Tormes",
        "capacity": 1500,
        "latitude": 40.94532419999999,
        "longitude": -5.6254968
    },
    {
        "id": 22524,
        "name": "Campo de Fútbol de Mansilla de las Mulas",
        "city": "Mansilla de las Mulas",
        "capacity": 1000,
        "latitude": 42.5040117,
        "longitude": -5.4059856
    },
    {
        "id": 12324,
        "name": "Estadio Municipal de Fútbol Francisco Mateos",
        "city": "Salamanca",
        "capacity": 1000,
        "latitude": 40.6056955,
        "longitude": -6.524035899999999
    },
    {
        "id": 783687238723,
        "name": "Estadio Municipal La Laguna",
        "city": "Laguna de Duero",
        "capacity": 2500,
        "latitude": 41.584601,
        "longitude": -4.7246809
    },
    {
        "id": 22525,
        "name": "Campo Municipal Los Barreros",
        "city": "Villaralbo",
        "capacity": 2500,
        "latitude": 41.4920425,
        "longitude": -5.6802911
    },
    {
        "id": 21080,
        "name": "Campo Municipal de Futbol Briviesca",
        "city": "Briviesca",
        "capacity": 1500,
        "latitude": 42.5511837,
        "longitude": -3.3277554
    },
    {
        "id": 22526,
        "name": "Campo de Futbol Mojados",
        "city": "Mojados",
        "capacity": 1000,
        "latitude": 41.4263372,
        "longitude": -4.6703261
    },
    {
        "id": 3988,
        "name": "Nuevo Estadio La Victoria",
        "city": "Jaén",
        "capacity": 12569,
        "latitude": 37.7753883,
        "longitude": -3.7673872
    },
    {
        "id": 5460,
        "name": "Estadio Municipal San Benito",
        "city": "Porcuna",
        "capacity": 1200,
        "latitude": 37.8706169,
        "longitude": -4.1771974
    },
    {
        "id": 6829,
        "name": "Estadio Matías Prats",
        "city": "Torredonjimeno",
        "capacity": 4500,
        "latitude": 37.7644863,
        "longitude": -3.9478366
    },
    {
        "id": 19240,
        "name": "Estadio Municipal Santo Domingo",
        "city": "El Ejido",
        "capacity": 7885,
        "latitude": 36.7640604,
        "longitude": -2.8005414
    },
    {
        "id": 6831,
        "name": "Estadio San Ignacio",
        "city": "Málaga",
        "capacity": 1000,
        "latitude": 36.7194022,
        "longitude": -4.3554036
    },
    {
        "id": 6832,
        "name": "Estadio Municipal Miguel Moranto",
        "city": "Huétor Tájar",
        "capacity": 1800,
        "latitude": 37.1977772,
        "longitude": -4.0546541
    },
    {
        "id": 6833,
        "name": "Estadio Las Viñas",
        "city": "Huétor Vega",
        "capacity": 4000,
        "latitude": 37.1473739,
        "longitude": -3.5651278
    },
    {
        "id": 6835,
        "name": "Estadio Polideportivo La Juventud",
        "city": "Mancha Real",
        "capacity": 3700,
        "latitude": 37.7890193,
        "longitude": -3.6122432
    },
    {
        "id": 6837,
        "name": "Estadio Escribano Castilla",
        "city": "Motril",
        "capacity": 5400,
        "latitude": 36.7539857,
        "longitude": -3.5125239
    },
    {
        "id": 6838,
        "name": "Ciudad Deportiva de la Federación Malagueña de Fútbol",
        "city": "Málaga",
        "capacity": 1300,
        "latitude": 36.7085139,
        "longitude": -4.4635316
    },
    {
        "id": 21274,
        "name": "Ciudad Deportiva Los Ángeles",
        "city": "Almería",
        "capacity": 1500,
        "latitude": 36.8493811,
        "longitude": -2.3228245
    },
    {
        "id": 6840,
        "name": "Polideportivo Municipal Abdon Martínez Fariñas",
        "city": "Torreperogil",
        "capacity": 2000,
        "latitude": 38.0392955,
        "longitude": -3.2812251
    },
    {
        "id": 12326,
        "name": "Estadio Juan Manuel Azuaga",
        "city": "Torre del Mar",
        "capacity": 2000,
        "latitude": 36.7502514,
        "longitude": -4.098345999999999
    },
    {
        "id": 19152,
        "name": "Estadio Nuevo Municipal",
        "city": "Armilla",
        "capacity": 2000,
        "latitude": 37.1511017,
        "longitude": -3.6216496
    },
    {
        "id": 21275,
        "name": "Ciudad Deportiva Las Lagunas",
        "city": "Las Lagunas de Mijas",
        "capacity": 1000,
        "latitude": 36.5461949,
        "longitude": -4.6394414
    },
    {
        "id": 12327,
        "name": "Estadio Municipal",
        "city": "San Pedro de Alcántara",
        "capacity": 5000,
        "latitude": 36.4926795,
        "longitude": -4.9800677
    },
    {
        "id": 21260,
        "name": "Estadio Chamorro Martinez",
        "city": "Martos",
        "capacity": 5000,
        "latitude": 37.7265081,
        "longitude": -3.9725017
    },
    {
        "id": 6842,
        "name": "Estadio Ciudad de Lucena",
        "city": "Lucena",
        "capacity": 5076,
        "latitude": 37.4129519,
        "longitude": -4.505753599999999
    },
    {
        "id": 6843,
        "name": "Estadio Municipal Jose António Pérez Ureba",
        "city": "Conil de la Frontera",
        "capacity": 1500,
        "latitude": 37.8179918,
        "longitude": -0.7916966
    },
    {
        "id": 6844,
        "name": "Estadio Guadalquivir",
        "city": "Coria del Río",
        "capacity": 5000,
        "latitude": 37.2806286,
        "longitude": -6.051006
    },
    {
        "id": 1469,
        "name": "Estadio Nuevo Arcángel",
        "city": "Córdoba",
        "capacity": 21822,
        "latitude": 37.8721706,
        "longitude": -4.7644367
    },
    {
        "id": 21391,
        "name": "Estadio San José",
        "city": "Gines",
        "capacity": 1000,
        "latitude": 37.3929957,
        "longitude": -6.0768428
    },
    {
        "id": 12610,
        "name": "Estadio Municipal Pozoblanco",
        "city": "Pozoblanco",
        "capacity": 5000,
        "latitude": 38.3760605,
        "longitude": -4.8420983
    },
    {
        "id": 6848,
        "name": "Estadio Municipal Manuel Polinario",
        "city": "Puente Genil",
        "capacity": 2000,
        "latitude": 37.3978582,
        "longitude": -4.7693666
    },
    {
        "id": 6851,
        "name": "Estadio Municipal Ciudad de Lepe",
        "city": "Lepe",
        "capacity": 4000,
        "latitude": 37.2510238,
        "longitude": -7.1935897
    },
    {
        "id": 2919,
        "name": "Estadio Jesús Navas",
        "city": "Sevilla",
        "capacity": 7000,
        "latitude": 37.3523162,
        "longitude": -5.9470053
    },
    {
        "id": 6852,
        "name": "Estadio San Juan Bosco",
        "city": "Utrera",
        "capacity": 3000,
        "latitude": 37.1900939,
        "longitude": -5.7706069
    },
    {
        "id": 10974,
        "name": "Estadio Municipal",
        "city": "La Palma del Condado",
        "capacity": 2000,
        "latitude": 37.3820735,
        "longitude": -6.5502011
    },
    {
        "id": 12328,
        "name": "Estadio Municipal San Sebastián",
        "city": "Tomares",
        "capacity": 2500,
        "latitude": 37.3731949,
        "longitude": -6.0461616
    },
    {
        "id": 12329,
        "name": "Estadio Municipal Luis Rodriguez Salvador",
        "city": "Cartaya",
        "capacity": 3072,
        "latitude": 37.27714,
        "longitude": -7.14431
    },
    {
        "id": 3969,
        "name": "Estadio Municipal Alfonso Murube",
        "city": "Ceuta",
        "capacity": 7000,
        "latitude": 35.8854565,
        "longitude": -5.3279087
    },
    {
        "id": 12580,
        "name": "Campo de Fútbol Municipal",
        "city": "Espiel",
        "capacity": 5000,
        "latitude": 38.18698120000001,
        "longitude": -5.0206327
    },
    {
        "id": 19135,
        "name": "Estadio Eloy Ávila Cano Bollullos",
        "city": "Bollullos Par del Condado",
        "capacity": 3000,
        "latitude": 37.3355903,
        "longitude": -6.5460577
    },
    {
        "id": 21392,
        "name": "Centro Deportivo Vega de Triana",
        "city": "Sevilla",
        "capacity": 1000,
        "latitude": 37.3826608,
        "longitude": -6.0150292
    },
    {
        "id": 21162,
        "name": "Ciudad Deportiva Decáno del Fútbol Español",
        "city": "Huelva",
        "capacity": 1000,
        "latitude": 37.3100666,
        "longitude": -6.8808113
    },
    {
        "id": 397982373298,
        "name": "San José Stadium",
        "city": "Sevilla",
        "capacity": 350,
        "latitude": 37.3840863,
        "longitude": -5.9709778
    },
    {
        "id": 3987,
        "name": "Estadio Municipal de Sa Pobla",
        "city": "Sa Pobla (Mallorca",
        "capacity": 8000,
        "latitude": 39.7606778,
        "longitude": 3.0199749
    },
    {
        "id": 6856,
        "name": "Estadi Municipal Els Arcs",
        "city": "Mallorca",
        "capacity": 4000,
        "latitude": 39.1906725,
        "longitude": -0.5126345
    },
    {
        "id": 6857,
        "name": "Estadio Miquel Pons",
        "city": "Mallorca",
        "capacity": 2000,
        "latitude": 39.6856556,
        "longitude": 2.8375706
    },
    {
        "id": 6858,
        "name": "Estadio Municipal Coll d’en Rebassa",
        "city": "Mallorca",
        "capacity": 1000,
        "latitude": 39.55115170000001,
        "longitude": 2.6976176
    },
    {
        "id": 6859,
        "name": "Nou Camp de Inca",
        "city": "Inca",
        "capacity": 10000,
        "latitude": 39.71494149999999,
        "longitude": 2.9162797
    },
    {
        "id": 6861,
        "name": "Estadio Es Torrentó",
        "city": "Mallorca",
        "capacity": 2000,
        "latitude": 39.589952,
        "longitude": 2.63005
    },
    {
        "id": 6863,
        "name": "Estadio Municipal",
        "city": "Sant Francesc de Formentera",
        "capacity": 2500,
        "latitude": 38.7011422,
        "longitude": 1.4406264
    },
    {
        "id": 6864,
        "name": "Camp Municipal Es Puig",
        "city": "Mallorca",
        "capacity": 2000,
        "latitude": 39.7025027,
        "longitude": 3.1096078
    },
    {
        "id": 20162,
        "name": "Poliesportiu Municipal Na Capellera",
        "city": "Manacor",
        "capacity": 3000,
        "latitude": 39.5660628,
        "longitude": 3.2187227
    },
    {
        "id": 6867,
        "name": "Polideportivo Municipal de Magalluf",
        "city": "Mallorca",
        "capacity": 3500,
        "latitude": 39.5109794,
        "longitude": 2.5305032
    },
    {
        "id": 6868,
        "name": "Estadio Sant Antoni",
        "city": "Sant Antoni de Portmany",
        "capacity": 3000,
        "latitude": 38.9826007,
        "longitude": 1.3054417
    },
    {
        "id": 6871,
        "name": "Estadio Municipal de Santanyí",
        "city": "Santanyí (Mallorca",
        "capacity": 4000,
        "latitude": 39.3507722,
        "longitude": 3.1348241
    },
    {
        "id": 10977,
        "name": "Campo Municipal Kiko Serra",
        "city": "Sant Josep de sa Talaia",
        "capacity": 2000,
        "latitude": 38.8939944,
        "longitude": 1.3846143
    },
    {
        "id": 12333,
        "name": "Camp Municipal d'Esports de Campos",
        "city": "Mallorca",
        "capacity": 1500,
        "latitude": 39.4345365,
        "longitude": 3.0077189
    },
    {
        "id": 12335,
        "name": "Estadio San Martì",
        "city": "Menorca",
        "capacity": 1000,
        "latitude": 39.992509,
        "longitude": 4.09277
    },
    {
        "id": 20144,
        "name": "Camp de Futbol Municipal de Sant Miquel de Balansat",
        "city": "Sant Miquel de Balansat",
        "capacity": 1000,
        "latitude": 39.0595321,
        "longitude": 1.4635988
    },
    {
        "id": 89327987289,
        "name": "Los Nogales Municipal Sports Field",
        "city": "Es Migjorn Gran",
        "capacity": 1000,
        "latitude": 39.9452088,
        "longitude": 4.050889199999999
    },
    {
        "id": 1287893798213,
        "name": "Camp Municipal de Futbol Porreres",
        "city": "Porreres",
        "capacity": 700,
        "latitude": 39.5214146,
        "longitude": 3.0189758
    },
    {
        "id": 3983,
        "name": "Estadio Silvestre Carrillo",
        "city": "Santa Cruz de la Palma (La Palma)",
        "capacity": 6000,
        "latitude": 28.68749529999999,
        "longitude": -17.7740852
    },
    {
        "id": 5963,
        "name": "Estadio Malvinas Argentinas",
        "city": "Los Polvorines",
        "capacity": 6800,
        "latitude": -34.5135346,
        "longitude": -58.7063445
    },
    {
        "id": 6515,
        "name": "Campo de Fútbol Juan Guedes",
        "city": "Las Palmas de Gran Canaria",
        "capacity": 2000,
        "latitude": 28.1043351,
        "longitude": -15.4750661
    },
    {
        "id": 6668,
        "name": "Anexo Gran Canaria",
        "city": "Las Palmas de Gran Canaria",
        "capacity": 2000,
        "latitude": 28.1022246,
        "longitude": -15.4543721
    },
    {
        "id": 6875,
        "name": "Campo Municipal de Fútbol Clementina de Bello",
        "city": "Buzanada",
        "capacity": 1000,
        "latitude": 28.0664963,
        "longitude": -16.6535635
    },
    {
        "id": 6877,
        "name": "Estadio Villa Isabel",
        "city": "Tenerife",
        "capacity": 3000,
        "latitude": 28.0137613,
        "longitude": -16.6704706
    },
    {
        "id": 22483,
        "name": "Campo de fútbol Francisco Bermúdez Hernández",
        "city": "Tías",
        "capacity": 2000,
        "latitude": 28.9516527,
        "longitude": -13.6543794
    },
    {
        "id": 6880,
        "name": "Estadio Antonio Domínguez Alfonso",
        "city": "Los Cristianos (Tenerife)",
        "capacity": 7500,
        "latitude": 28.0599944,
        "longitude": -16.7270441
    },
    {
        "id": 6881,
        "name": "Campo de Futbol Vega de San Mateo",
        "city": "Vega de San Mateo",
        "capacity": 3000,
        "latitude": 28.0076738,
        "longitude": -15.5345771
    },
    {
        "id": 6882,
        "name": "Estadio Argelio Tabares",
        "city": "Santa Úrsula",
        "capacity": 2000,
        "latitude": 28.4260382,
        "longitude": -16.4849599
    },
    {
        "id": 6885,
        "name": "Ciudad Deportiva de Maspalomas",
        "city": "Maspalomas (Gran Canaria)",
        "capacity": 2000,
        "latitude": 27.7622318,
        "longitude": -15.5949525
    },
    {
        "id": 6886,
        "name": "Estadio Alfonso Silva",
        "city": "Las Palmas de Gran Canaria",
        "capacity": 3500,
        "latitude": 28.1078376,
        "longitude": -15.4424714
    },
    {
        "id": 6888,
        "name": "Campo Los Olivos",
        "city": "Santa Brígida",
        "capacity": 1000,
        "latitude": 28.0416203,
        "longitude": -15.4933164
    },
    {
        "id": 22484,
        "name": "Complejo Deportivo Municipal Manuel Pablo",
        "city": "Arucas",
        "capacity": 1000,
        "latitude": 28.1489376,
        "longitude": -15.5285612
    },
    {
        "id": 6878,
        "name": "Estadio Municipal de Los Pozos",
        "city": "Puerto Rosario",
        "capacity": 2000,
        "latitude": 28.4918354,
        "longitude": -13.8665066
    },
    {
        "id": 19153,
        "name": "Estadio Las Palmitas",
        "city": "Gran Canaria",
        "capacity": 3500,
        "latitude": 27.852796,
        "longitude": -15.4637923
    },
    {
        "id": 21103,
        "name": "Estadio Municipal Pedro Espinosa De León",
        "city": "San Bartolomé",
        "capacity": 2000,
        "latitude": 42.587534,
        "longitude": -5.576597599999999
    },
    {
        "id": 21104,
        "name": "Estadio Municipal Aceró",
        "city": "Los Llanos de Aridane",
        "capacity": 3000,
        "latitude": 28.6612296,
        "longitude": -17.9196792
    },
    {
        "id": 5778,
        "name": "Polideportivo Municipal El Palmar",
        "city": "El Palmar",
        "capacity": 2000,
        "latitude": 37.9329654,
        "longitude": -1.1608024
    },
    {
        "id": 2918,
        "name": "Estadio Francisco Artés Carrasco",
        "city": "Lorca",
        "capacity": 8120,
        "latitude": 37.6394879,
        "longitude": -1.7350952
    },
    {
        "id": 6889,
        "name": "Estadio San Miguel",
        "city": "Pulpí",
        "capacity": 2000,
        "latitude": 37.4019674,
        "longitude": -1.7501887
    },
    {
        "id": 6897,
        "name": "Estadio Municipal de Mula",
        "city": "Mula",
        "capacity": 2000,
        "latitude": 38.0408554,
        "longitude": -1.4851346
    },
    {
        "id": 6899,
        "name": "Estadio Municipal de Llano de Brujas",
        "city": "Llano de Brujas",
        "capacity": 2000,
        "latitude": 38.00157919999999,
        "longitude": -1.0692522
    },
    {
        "id": 6900,
        "name": "Estadio Campus Universitario",
        "city": "Murcia",
        "capacity": 5000,
        "latitude": 38.0145801,
        "longitude": -1.1688644
    },
    {
        "id": 6901,
        "name": "Campo Municipal El Secante",
        "city": "Alumbres",
        "capacity": 1000,
        "latitude": 37.6023123,
        "longitude": -0.9130969999999998
    },
    {
        "id": 6902,
        "name": "Estadio El Mayayo",
        "city": "Sangonera la Verde",
        "capacity": 1200,
        "latitude": 37.9233774,
        "longitude": -1.1936494
    },
    {
        "id": 10979,
        "name": "Estadio Nicolás de las Peñas",
        "city": "Bullas",
        "capacity": 2000,
        "latitude": 38.0451418,
        "longitude": -1.6749685
    },
    {
        "id": 12344,
        "name": "Estadio Playa Sol",
        "city": "Puerto de Mazarrón",
        "capacity": 4500,
        "latitude": 37.572116,
        "longitude": -1.2610272
    },
    {
        "id": 12345,
        "name": "Complejo Deportivo Francisco Fernández Torralba",
        "city": "Caravaca de la Cruz",
        "capacity": 1000,
        "latitude": 38.1058713,
        "longitude": -1.8550805
    },
    {
        "id": 10978,
        "name": "Escuela de Fútbol Ciudad Jardín",
        "city": "Cartagena",
        "capacity": 2000,
        "latitude": 37.61802650000001,
        "longitude": -0.9922051
    },
    {
        "id": 19154,
        "name": "Polideportivo Municipal Ángel Sornichero",
        "city": "Alcantarilla",
        "capacity": 4000,
        "latitude": 37.9741756,
        "longitude": -1.2265668
    },
    {
        "id": 19155,
        "name": "Estadio de La Arboleja",
        "city": "Cieza",
        "capacity": 5500,
        "latitude": 38.2319199,
        "longitude": -1.404609
    },
    {
        "id": 19156,
        "name": "Estadio Municipal Sánchez Cánovas",
        "city": "Molina de Segura",
        "capacity": 1500,
        "latitude": 38.0512533,
        "longitude": -1.2251519
    },
    {
        "id": 21126,
        "name": "Campo de Fútbol de Balsicas",
        "city": "Torre-Pacheco",
        "capacity": 1000,
        "latitude": 37.8235485,
        "longitude": -0.9564824000000001
    },
    {
        "id": 21127,
        "name": "Estadio El Limonar",
        "city": "Santomera",
        "capacity": 3000,
        "latitude": 38.07021719999999,
        "longitude": -1.0471584
    },
    {
        "id": 6903,
        "name": "Estadio El Rubial",
        "city": "Águilas",
        "capacity": 4000,
        "latitude": 37.4037154,
        "longitude": -1.5907668
    },
    {
        "id": 6484,
        "name": "Estadio Municipal Nuevo Vivero",
        "city": "Badajoz",
        "capacity": 15198,
        "latitude": 38.85890879999999,
        "longitude": -7.0060563
    },
    {
        "id": 6574,
        "name": "Estadio Municipal de Villafranca de los Barros",
        "city": "Villafranca de los Barros",
        "capacity": 5500,
        "latitude": 38.5620032,
        "longitude": -6.3253717
    },
    {
        "id": 6905,
        "name": "Estadio Municipal de Arroyo de la Luz",
        "city": "Arroyo de la Luz",
        "capacity": 3000,
        "latitude": 39.47826000000001,
        "longitude": -6.576099999999999
    },
    {
        "id": 6906,
        "name": "Estadio CD Azuaga",
        "city": "Azuaga",
        "capacity": 1500,
        "latitude": 38.262732,
        "longitude": -5.6847593
    },
    {
        "id": 6908,
        "name": "Municipal Calamonteño",
        "city": "Calamonte",
        "capacity": 2000,
        "latitude": 38.8858568,
        "longitude": -6.3800938
    },
    {
        "id": 6909,
        "name": "Estadio Manuel Sánchez Delgado",
        "city": "Cáceres",
        "capacity": 4000,
        "latitude": -16.0887824,
        "longitude": -57.6900349
    },
    {
        "id": 6912,
        "name": "Estadio Manuel Calzado Galván",
        "city": "Jerez de los Caballeros",
        "capacity": 5000,
        "latitude": 38.3272365,
        "longitude": -6.7605754
    },
    {
        "id": 6913,
        "name": "Estadio Fernando Robina",
        "city": "Llerena",
        "capacity": 1000,
        "latitude": 38.2361068,
        "longitude": -6.0216652
    },
    {
        "id": 6915,
        "name": "Estadio Municipal Emilio Macarro Rodriguez",
        "city": "Montijo",
        "capacity": 2000,
        "latitude": 38.9101507,
        "longitude": -6.606507799999999
    },
    {
        "id": 6916,
        "name": "Estadio Municipal de Navalmoral de la Mata",
        "city": "Navalmoral de la Mata",
        "capacity": 5000,
        "latitude": 39.8977759,
        "longitude": -5.5440201
    },
    {
        "id": 19157,
        "name": "Ciudad Deportiva Ramón Rocha Maqueda",
        "city": "Olivenza",
        "capacity": 5000,
        "latitude": 38.6862855,
        "longitude": -7.0950226
    },
    {
        "id": 6920,
        "name": "Estadio Municipal Julián García de Guadiana",
        "city": "Trujillo",
        "capacity": 1000,
        "latitude": 39.4543751,
        "longitude": -5.8890009
    },
    {
        "id": 20165,
        "name": "Campo de fútbol de Jaraíz de la Vera",
        "city": "Jaraíz de la Vera",
        "capacity": 1000,
        "latitude": 40.0599289,
        "longitude": -5.7449594
    },
    {
        "id": 19158,
        "name": "Estadio Antonio Amaya",
        "city": "Pueblonuevo del Guadiana",
        "capacity": 3150,
        "latitude": 38.9234799,
        "longitude": -6.7585215
    },
    {
        "id": 19297,
        "name": "Estadio Municipal de Santa Amalia",
        "city": "Santa Amalia",
        "capacity": 1700,
        "latitude": 39.01592,
        "longitude": -6.0183778
    },
    {
        "id": 20166,
        "name": "Estadio Manuel Ruiz",
        "city": "Castuera",
        "capacity": 1500,
        "latitude": 38.729986,
        "longitude": -5.550911399999999
    },
    {
        "id": 87289798122,
        "name": "Estádio Francisco de la Hera",
        "city": "Almendralejo",
        "capacity": 11580,
        "latitude": 38.6843511,
        "longitude": -6.414593
    },
    {
        "id": 22486,
        "name": "Campo Fútbol Puebla de la Calzada",
        "city": "Puebla de la Calzada",
        "capacity": 1000,
        "latitude": 38.8891563,
        "longitude": -6.6240305
    },
    {
        "id": 3984,
        "name": "Estadio Municipal Valle de Aranguren",
        "city": "Mutilva Baja",
        "capacity": 2000,
        "latitude": 42.7905962,
        "longitude": -1.6218653
    },
    {
        "id": 6507,
        "name": "Campo San Francisco",
        "city": "Tafalla",
        "capacity": 3000,
        "latitude": 42.5215292,
        "longitude": -1.6766319
    },
    {
        "id": 22488,
        "name": "Estadio El Pinar 1",
        "city": "Zizur Mayor",
        "capacity": 1000,
        "latitude": 42.7972679,
        "longitude": -1.7041467
    },
    {
        "id": 6924,
        "name": "Complejo Deportivo Plazaola",
        "city": "Lekunberri",
        "capacity": 1000,
        "latitude": 43.0001706,
        "longitude": -1.893662
    },
    {
        "id": 6925,
        "name": "Estadio Lorenzo Goikoa",
        "city": "Villava",
        "capacity": 2000,
        "latitude": -34.6520781,
        "longitude": -58.4401001
    },
    {
        "id": 6926,
        "name": "Estadio Ripagaina",
        "city": "Burlada",
        "capacity": 4000,
        "latitude": 42.8175001,
        "longitude": -1.6164855
    },
    {
        "id": 6927,
        "name": "Estadio San Juan",
        "city": "Cintruénigo",
        "capacity": 1000,
        "latitude": 42.0765013,
        "longitude": -1.8024592
    },
    {
        "id": 6929,
        "name": "Estadio San Francisco Javier",
        "city": "Cortes (Navarra)",
        "capacity": 1000,
        "latitude": 41.9207308,
        "longitude": -1.4260932
    },
    {
        "id": 6931,
        "name": "Estadio Areta",
        "city": "Huarte (Uharte)",
        "capacity": 600,
        "latitude": 42.8292758,
        "longitude": -1.5975394
    },
    {
        "id": 6934,
        "name": "Campo de Fútbol Beitikuntzea",
        "city": "Lizasoáin",
        "capacity": 5000,
        "latitude": 42.8275796,
        "longitude": -1.767959
    },
    {
        "id": 6935,
        "name": "Estadio San Juan",
        "city": "Pamplona",
        "capacity": 1250,
        "latitude": 42.8149877,
        "longitude": -1.6670547
    },
    {
        "id": 6937,
        "name": "Instalaciones Deportivas Chantrea",
        "city": "Pamplona",
        "capacity": 3500,
        "latitude": 42.8282317,
        "longitude": -1.6343933
    },
    {
        "id": 6938,
        "name": "Estadio Sarriguren",
        "city": "Sarriguren",
        "capacity": 2000,
        "latitude": 42.8136701,
        "longitude": -1.5929853
    },
    {
        "id": 10984,
        "name": "Campo Bidezarra de Noain",
        "city": "Noain",
        "capacity": 2000,
        "latitude": 42.7591341,
        "longitude": -1.6352467
    },
    {
        "id": 10985,
        "name": "Estadio Municipal Cantolagua",
        "city": "Sangüesa",
        "capacity": 600,
        "latitude": 42.5695313,
        "longitude": -1.2824932
    },
    {
        "id": 12348,
        "name": "Complejo Polideportivo Municipal Osabidea",
        "city": "Puente la Reina",
        "capacity": 1000,
        "latitude": 42.6697695,
        "longitude": -1.8098151
    },
    {
        "id": 21105,
        "name": "Estadio La Alameda",
        "city": "Artajona",
        "capacity": 2500,
        "latitude": 42.5858236,
        "longitude": -1.7615518
    },
    {
        "id": 9827893929,
        "name": "La Jaula",
        "city": "Navarre",
        "capacity": 1000,
        "latitude": 42.6953909,
        "longitude": -1.6760691
    },
    {
        "id": 5777,
        "name": "Estadio Mundial 82",
        "city": "Logroño",
        "capacity": 3500,
        "latitude": null,
        "longitude": null
    },
    {
        "id": 22490,
        "name": "Estadio Municipal Luis De La Fuente",
        "city": "Haro",
        "capacity": 4300,
        "latitude": null,
        "longitude": null
    },
    {
        "id": 6942,
        "name": "Estadio Sendero",
        "city": "Arnedo",
        "capacity": 4500,
        "latitude": null,
        "longitude": null
    },
    {
        "id": 6943,
        "name": "Estadio La Isla",
        "city": "Logroño",
        "capacity": 2000,
        "latitude": null,
        "longitude": null
    },
    {
        "id": 3966,
        "name": "Estadio La Planilla",
        "city": "Calahorra",
        "capacity": 5600,
        "latitude": null,
        "longitude": null
    },
    {
        "id": 6945,
        "name": "Estadio Municipal El Soto",
        "city": "Haro",
        "capacity": 800,
        "latitude": null,
        "longitude": null
    },
    {
        "id": 6946,
        "name": "Estadio El Rollo",
        "city": "Santo Domingo de la Calzada",
        "capacity": 1500,
        "latitude": null,
        "longitude": null
    },
    {
        "id": 6947,
        "name": "Estadio La Salera",
        "city": "Nájera",
        "capacity": 1114,
        "latitude": null,
        "longitude": null
    },
    {
        "id": 22491,
        "name": "Oion Arena",
        "city": "Oyón (Oion)",
        "capacity": 5000,
        "latitude": null,
        "longitude": null
    },
    {
        "id": 6950,
        "name": "Estadio San Miguel",
        "city": "Rincón de Soto",
        "capacity": 3000,
        "latitude": null,
        "longitude": null
    },
    {
        "id": 12349,
        "name": "Estadio Municipal de Varea",
        "city": "Varea",
        "capacity": 2000,
        "latitude": null,
        "longitude": null
    },
    {
        "id": 6952,
        "name": "Estadio Municipal de Viana",
        "city": "Viana",
        "capacity": 500,
        "latitude": null,
        "longitude": null
    },
    {
        "id": 6954,
        "name": "Estadio El Salvador",
        "city": "Logroño",
        "capacity": 1161,
        "latitude": null,
        "longitude": null
    },
    {
        "id": 10987,
        "name": "Estadio San Roque",
        "city": "Agoncillo",
        "capacity": 2000,
        "latitude": null,
        "longitude": null
    },
    {
        "id": 10988,
        "name": "Estadio San Miguel",
        "city": "Navarrete",
        "capacity": 600,
        "latitude": null,
        "longitude": null
    },
    {
        "id": 6944,
        "name": "Estadio La Estrella",
        "city": "Logroño",
        "capacity": 500,
        "latitude": null,
        "longitude": null
    },
    {
        "id": 19293,
        "name": "Estadio La Manzanera",
        "city": "Autol",
        "capacity": 1000,
        "latitude": null,
        "longitude": null
    }
]