[
  {
    "id": "netherlands-afc-ajax",
    "name": "Ajax",
    "country": "Netherlands",
    "city": "Amsterdam",
    "stadium": "Johan Cruyff Arena",
    "latitude": 52.31457426207562,
    "longitude": 4.941864814158152,
    "capacity": 55865,
    "tier": "professional"
  },
  {
    "id": "netherlands-az-alkmaar",
    "name": "AZ",
    "country": "Netherlands",
    "city": "Alkmaar",
    "stadium": "AFAS Stadium",
    "latitude": 52.61293447600286,
    "longitude": 4.74206105652524,
    "capacity": 19500,
    "tier": "professional"
  },
  {
    "id": "netherlands-excelsior-rotterdam",
    "name": "Excelsior Rotterdam",
    "country": "Netherlands",
    "city": "Rotterdam",
    "stadium": "Van Donge & De Roo Stadion",
    "latitude": 51.917417904487635,
    "longitude": 4.519812755521161,
    "capacity": 4400,
    "tier": "professional"
  },
  {
    "id": "netherlands-fc-groningen",
    "name": "FC Groningen",
    "country": "Netherlands",
    "city": "Groningen",
    "stadium": "Euroborg Stadium",
    "latitude": 53.206261760661505,
    "longitude": 6.591239774609432,
    "capacity": 22550,
    "tier": "professional"
  },
  {
    "id": "netherlands-feyenoord",
    "name": "Feyenoord",
    "country": "Netherlands",
    "city": "Rotterdam",
    "stadium": "Stadion Feijenoord (De Kuip)",
    "latitude": 51.89403661707197,
    "longitude": 4.523202226657144,
    "capacity": 47500,
    "tier": "professional"
  },
  {
    "id": "netherlands-fortuna-sittard",
    "name": "Fortuna Sittard",
    "country": "Netherlands",
    "city": "Sittard",
    "stadium": "Fortuna Sittard Stadion",
    "latitude": 50.9920981854425,
    "longitude": 5.8437041419577715,
    "capacity": 12000,
    "tier": "professional"
  },
  {
    "id": "netherlands-go-ahead-eagles",
    "name": "Go Ahead Eagles",
    "country": "Netherlands",
    "city": "Deventer",
    "stadium": "De Adelaarshorst",
    "latitude": 52.26045840879131,
    "longitude": 6.172597555511405,
    "capacity": 10000,
    "tier": "professional"
  },
  {
    "id": "netherlands-sc-heerenveen",
    "name": "sc Heerenveen",
    "country": "Netherlands",
    "city": "Heerenveen",
    "stadium": "Abe Lenstra Stadion",
    "latitude": 52.958262843566345,
    "longitude": 5.936799455545991,
    "capacity": 27224,
    "tier": "professional"
  },
  {
    "id": "netherlands-heracles-almelo",
    "name": "Heracles Almelo",
    "country": "Netherlands",
    "city": "Almelo",
    "stadium": "Asito Stadion",
    "latitude": 52.33917766518072,
    "longitude": 6.6509865420238095,
    "capacity": 12080,
    "tier": "professional"
  },
  {
    "id": "netherlands-nac-breda",
    "name": "NAC Breda",
    "country": "Netherlands",
    "city": "Breda",
    "stadium": "Rat Verlegh Stadium",
    "latitude": 51.59490901087713,
    "longitude": 4.750366827191135,
    "capacity": 20500,
    "tier": "professional"
  },
  {
    "id": "netherlands-nec-nijmegen",
    "name": "N.E.C. Nijmegen",
    "country": "Netherlands",
    "city": "Nijmegen",
    "stadium": "Goffertstadion",
    "latitude": 51.82253500167679,
    "longitude": 5.837236498361646,
    "capacity": 12650,
    "tier": "professional"
  },
  {
    "id": "netherlands-pec-zwolle",
    "name": "PEC Zwolle",
    "country": "Netherlands",
    "city": "Zwolle",
    "stadium": "MACÂ³PARK stadion",
    "latitude": 52.51729626052382,
    "longitude": 6.1209173560507315,
    "capacity": 14000,
    "tier": "professional"
  },
  {
    "id": "netherlands-psv",
    "name": "PSV",
    "country": "Netherlands",
    "city": "Eindhoven",
    "stadium": "Philips Stadion",
    "latitude": 51.44185444458988,
    "longitude": 5.467469256022608,
    "capacity": 35000,
    "tier": "professional"
  },
  {
    "id": "netherlands-sparta-rotterdam",
    "name": "Sparta Rotterdam",
    "country": "Netherlands",
    "city": "Rotterdam",
    "stadium": "Sparta Stadion Het Kasteel",
    "latitude": 51.92009848001512,
    "longitude": 4.433150400212042,
    "capacity": 11000,
    "tier": "professional"
  },
  {
    "id": "netherlands-telstar",
    "name": "Telstar",
    "country": "Netherlands",
    "city": "Velsen-Zuid",
    "stadium": "BUKO stadium",
    "latitude": 52.455311268848526,
    "longitude": 4.633974927213698,
    "capacity": 5338,
    "tier": "professional"
  },
  {
    "id": "netherlands-fc-twente",
    "name": "FC Twente",
    "country": "Netherlands",
    "city": "Enschede",
    "stadium": "De Grolsch Veste",
    "latitude": 52.23663702733821,
    "longitude": 6.83782521186628,
    "capacity": 30000,
    "tier": "professional"
  },
  {
    "id": "netherlands-fc-utrecht",
    "name": "FC Utrecht",
    "country": "Netherlands",
    "city": "Utrecht",
    "stadium": "Stadion Galgenwaard",
    "latitude": 52.07848905312732,
    "longitude": 5.145867313710011,
    "capacity": 23750,
    "tier": "professional"
  },
  {
    "id": "netherlands-fc-volendam",
    "name": "FC Volendam",
    "country": "Netherlands",
    "city": "Volendam",
    "stadium": "Kras Stadion",
    "latitude": 52.49452752163647,
    "longitude": 5.066227469543893,
    "capacity": 6800,
    "tier": "professional"
  },
  {
    "id": "netherlands-ado-den-haag",
    "name": "ADO Den Haag",
    "country": "Netherlands",
    "city": "Den Haag",
    "stadium": "WerkTalent Stadion",
    "latitude": 52.062849412734664,
    "longitude": 4.382417113709586,
    "capacity": 15000,
    "tier": "professional"
  },
  {
    "id": "netherlands-sc-cambuur",
    "name": "SC Cambuur",
    "country": "Netherlands",
    "city": "Leeuwarden",
    "stadium": "Kooi Stadion",
    "latitude": 53.20061410700173,
    "longitude": 5.768331898398082,
    "capacity": 15000,
    "tier": "professional"
  },
  {
    "id": "netherlands-fc-den-bosch",
    "name": "FC Den Bosch",
    "country": "Netherlands",
    "city": "'s-Hertogenbosch",
    "stadium": "de Vliert",
    "latitude": 51.70149950976517,
    "longitude": 5.329118467675247,
    "capacity": 6936,
    "tier": "professional"
  },
  {
    "id": "netherlands-fc-dordrecht",
    "name": "FC Dordrecht",
    "country": "Netherlands",
    "city": "Dordrecht",
    "stadium": "M-Scores Stadion",
    "latitude": 51.802192854574606,
    "longitude": 4.690664371373563,
    "capacity": 4235,
    "tier": "professional"
  },
  {
    "id": "netherlands-fc-eindhoven",
    "name": "FC Eindhoven",
    "country": "Netherlands",
    "city": "Eindhoven",
    "stadium": "Jan Louwers Stadion",
    "latitude": 51.411870739420515,
    "longitude": 5.478470175617978,
    "capacity": 4600,
    "tier": "professional"
  },
  {
    "id": "netherlands-fc-emmen",
    "name": "FC Emmen",
    "country": "Netherlands",
    "city": "Emmen",
    "stadium": "De Oude Meerdijk",
    "latitude": 52.7748163706329,
    "longitude": 6.944704654209667,
    "capacity": 8600,
    "tier": "professional"
  },
  {
    "id": "netherlands-de-graafschap",
    "name": "De Graafschap",
    "country": "Netherlands",
    "city": "Doetinchem",
    "stadium": "De Vijverberg",
    "latitude": 51.95586292069452,
    "longitude": 6.309683796517285,
    "capacity": 12600,
    "tier": "professional"
  },
  {
    "id": "netherlands-helmond-sport",
    "name": "Helmond Sport",
    "country": "Netherlands",
    "city": "Helmond",
    "stadium": "De Braak",
    "latitude": 51.48716907562131,
    "longitude": 5.679054032079297,
    "capacity": 3600,
    "tier": "professional"
  },
  {
    "id": "netherlands-afc-ajax",
    "name": "Jong Ajax",
    "country": "Netherlands",
    "city": "Duivendrecht",
    "stadium": "Sportpark De Toekomst",
    "latitude": 52.31296199872448,
    "longitude": 4.9284649848807245,
    "capacity": 2250,
    "tier": "professional"
  },
  {
    "id": "netherlands-az-alkmaar",
    "name": "Jong AZ",
    "country": "Netherlands",
    "city": "Wijdewormer",
    "stadium": "AFAS Trainingscomplex",
    "latitude": 52.473584106142326,
    "longitude": 4.848972727214174,
    "capacity": 1000,
    "tier": "professional"
  },
  {
    "id": "netherlands-psv",
    "name": "Jong PSV",
    "country": "Netherlands",
    "city": "Eindhoven",
    "stadium": "PSV Campus De Herdgang",
    "latitude": 51.45903129931542,
    "longitude": 5.439273269516817,
    "capacity": 2500,
    "tier": "professional"
  },
  {
    "id": "netherlands-fc-utrecht",
    "name": "Jong FC Utrecht",
    "country": "Netherlands",
    "city": "Utrecht",
    "stadium": "Sportcomplex Zoudenbalch",
    "latitude": 52.074157734370736,
    "longitude": 5.146719023228524,
    "capacity": 450,
    "tier": "professional"
  },
  {
    "id": "netherlands-mvv-maastricht",
    "name": "MVV Maastricht",
    "country": "Netherlands",
    "city": "Maastricht",
    "stadium": "De Geusselt",
    "latitude": 50.85763344097192,
    "longitude": 5.717836327172072,
    "capacity": 10234,
    "tier": "professional"
  },
  {
    "id": "netherlands-roda-jc-kerkrade",
    "name": "Roda JC Kerkrade",
    "country": "Netherlands",
    "city": "Kerkrade",
    "stadium": "Parkstad Limburg Stadion",
    "latitude": 50.857144506629076,
    "longitude": 6.00591324251367,
    "capacity": 19979,
    "tier": "professional"
  },
  {
    "id": "netherlands-top-oss",
    "name": "TOP Oss",
    "country": "Netherlands",
    "city": "Oss",
    "stadium": "Frans Heesen Stadion",
    "latitude": 51.754889517803136,
    "longitude": 5.52760399835991,
    "capacity": 4561,
    "tier": "professional"
  },
  {
    "id": "netherlands-vitesse",
    "name": "Vitesse",
    "country": "Netherlands",
    "city": "Arnhem",
    "stadium": "GelreDome",
    "latitude": 51.96304483086744,
    "longitude": 5.892972442542378,
    "capacity": 21248,
    "tier": "professional"
  },
  {
    "id": "netherlands-vvv-venlo",
    "name": "VVV-Venlo",
    "country": "Netherlands",
    "city": "Venlo",
    "stadium": "De Koel",
    "latitude": 51.35244224402083,
    "longitude": 6.179646282159367,
    "capacity": 8000,
    "tier": "professional"
  },
  {
    "id": "netherlands-almere-city-fc",
    "name": "Almere City FC",
    "country": "Netherlands",
    "city": "Almere",
    "stadium": "Yanmar Stadion",
    "latitude": 52.393483220124565,
    "longitude": 5.241070156047496,
    "capacity": 4501,
    "tier": "professional"
  },
  {
    "id": "netherlands-willem-ii",
    "name": "Willem II",
    "country": "Netherlands",
    "city": "Tilburg",
    "stadium": "Koning Willem II Stadion",
    "latitude": 51.54280157835981,
    "longitude": 5.066919829037641,
    "capacity": 14800,
    "tier": "professional"
  },
  {
    "id": "netherlands-rkc-waalwijk",
    "name": "RKC Waalwijk",
    "country": "Netherlands",
    "city": "Waalwijk",
    "stadium": "Mandemakers Stadion",
    "latitude": 51.6867007378767,
    "longitude": 5.089004084864338,
    "capacity": 7508,
    "tier": "professional"
  }
]