[
  {
    "id": "netherlands-afc-ajax",
    "name": "Ajax",
    "country": "Netherlands",
    "city": "Amsterdam",
    "stadium": "Johan Cruyff Arena",
    "latitude": 52.31457426207562,
    "longitude": 4.941864814158152,
    "capacity": 55865,
    "tier": "professional"
  },
  {
    "id": "netherlands-az-alkmaar",
    "name": "AZ",
    "country": "Netherlands",
    "city": "Alkmaar",
    "stadium": "AFAS Stadium",
    "latitude": 52.61293447600286,
    "longitude": 4.74206105652524,
    "capacity": 19500,
    "tier": "professional"
  },
  {
    "id": "netherlands-excelsior-rotterdam",
    "name": "Excelsior Rotterdam",
    "country": "Netherlands",
    "city": "Rotterdam",
    "stadium": "Van Donge & De Roo Stadion",
    "latitude": 51.917417904487635,
    "longitude": 4.519812755521161,
    "capacity": 4400,
    "tier": "professional"
  },
  {
    "id": "netherlands-fc-groningen",
    "name": "FC Groningen",
    "country": "Netherlands",
    "city": "Groningen",
    "stadium": "Euroborg Stadium",
    "latitude": 53.206261760661505,
    "longitude": 6.591239774609432,
    "capacity": 22550,
    "tier": "professional"
  },
  {
    "id": "netherlands-feyenoord",
    "name": "Feyenoord",
    "country": "Netherlands",
    "city": "Rotterdam",
    "stadium": "Stadion Feijenoord (De Kuip)",
    "latitude": 51.89403661707197,
    "longitude": 4.523202226657144,
    "capacity": 47500,
    "tier": "professional"
  },
  {
    "id": "netherlands-fortuna-sittard",
    "name": "Fortuna Sittard",
    "country": "Netherlands",
    "city": "Sittard",
    "stadium": "Fortuna Sittard Stadion",
    "latitude": 50.9920981854425,
    "longitude": 5.8437041419577715,
    "capacity": 12000,
    "tier": "professional"
  },
  {
    "id": "netherlands-go-ahead-eagles",
    "name": "Go Ahead Eagles",
    "country": "Netherlands",
    "city": "Deventer",
    "stadium": "De Adelaarshorst",
    "latitude": 52.26045840879131,
    "longitude": 6.172597555511405,
    "capacity": 10000,
    "tier": "professional"
  },
  {
    "id": "netherlands-sc-heerenveen",
    "name": "sc Heerenveen",
    "country": "Netherlands",
    "city": "Heerenveen",
    "stadium": "Abe Lenstra Stadion",
    "latitude": 52.958262843566345,
    "longitude": 5.936799455545991,
    "capacity": 27224,
    "tier": "professional"
  },
  {
    "id": "netherlands-heracles-almelo",
    "name": "Heracles Almelo",
    "country": "Netherlands",
    "city": "Almelo",
    "stadium": "Asito Stadion",
    "latitude": 52.33917766518072,
    "longitude": 6.6509865420238095,
    "capacity": 12080,
    "tier": "professional"
  },
  {
    "id": "netherlands-nac-breda",
    "name": "NAC Breda",
    "country": "Netherlands",
    "city": "Breda",
    "stadium": "Rat Verlegh Stadium",
    "latitude": 51.59490901087713,
    "longitude": 4.750366827191135,
    "capacity": 20500,
    "tier": "professional"
  },
  {
    "id": "netherlands-nec-nijmegen",
    "name": "N.E.C. Nijmegen",
    "country": "Netherlands",
    "city": "Nijmegen",
    "stadium": "Goffertstadion",
    "latitude": 51.82253500167679,
    "longitude": 5.837236498361646,
    "capacity": 12650,
    "tier": "professional"
  },
  {
    "id": "netherlands-pec-zwolle",
    "name": "PEC Zwolle",
    "country": "Netherlands",
    "city": "Zwolle",
    "stadium": "MAC³PARK stadion",
    "latitude": 52.51729626052382,
    "longitude": 6.1209173560507315,
    "capacity": 14000,
    "tier": "professional"
  },
  {
    "id": "netherlands-psv",
    "name": "PSV",
    "country": "Netherlands",
    "city": "Eindhoven",
    "stadium": "Philips Stadion",
    "latitude": 51.44185444458988,
    "longitude": 5.467469256022608,
    "capacity": 35000,
    "tier": "professional"
  },
  {
    "id": "netherlands-sparta-rotterdam",
    "name": "Sparta Rotterdam",
    "country": "Netherlands",
    "city": "Rotterdam",
    "stadium": "Sparta Stadion Het Kasteel",
    "latitude": 51.92009848001512,
    "longitude": 4.433150400212042,
    "capacity": 11000,
    "tier": "professional"
  },
  {
    "id": "netherlands-telstar",
    "name": "Telstar",
    "country": "Netherlands",
    "city": "Velsen-Zuid",
    "stadium": "BUKO stadium",
    "latitude": 52.455311268848526,
    "longitude": 4.633974927213698,
    "capacity": 5338,
    "tier": "professional"
  },
  {
    "id": "netherlands-fc-twente",
    "name": "FC Twente",
    "country": "Netherlands",
    "city": "Enschede",
    "stadium": "De Grolsch Veste",
    "latitude": 52.23663702733821,
    "longitude": 6.83782521186628,
    "capacity": 30000,
    "tier": "professional"
  },
  {
    "id": "netherlands-fc-utrecht",
    "name": "FC Utrecht",
    "country": "Netherlands",
    "city": "Utrecht",
    "stadium": "Stadion Galgenwaard",
    "latitude": 52.07848905312732,
    "longitude": 5.145867313710011,
    "capacity": 23750,
    "tier": "professional"
  },
  {
    "id": "netherlands-fc-volendam",
    "name": "FC Volendam",
    "country": "Netherlands",
    "city": "Volendam",
    "stadium": "Kras Stadion",
    "latitude": 52.49452752163647,
    "longitude": 5.066227469543893,
    "capacity": 6800,
    "tier": "professional"
  },
  {
    "id": "netherlands-ado-den-haag",
    "name": "ADO Den Haag",
    "country": "Netherlands",
    "city": "Den Haag",
    "stadium": "WerkTalent Stadion",
    "latitude": 52.062849412734664,
    "longitude": 4.382417113709586,
    "capacity": 15000,
    "tier": "professional"
  },
  {
    "id": "netherlands-sc-cambuur",
    "name": "SC Cambuur",
    "country": "Netherlands",
    "city": "Leeuwarden",
    "stadium": "Kooi Stadion",
    "latitude": 53.20061410700173,
    "longitude": 5.768331898398082,
    "capacity": 15000,
    "tier": "professional"
  },
  {
    "id": "netherlands-fc-den-bosch",
    "name": "FC Den Bosch",
    "country": "Netherlands",
    "city": "'s-Hertogenbosch",
    "stadium": "de Vliert",
    "latitude": 51.70149950976517,
    "longitude": 5.329118467675247,
    "capacity": 6936,
    "tier": "professional"
  },
  {
    "id": "netherlands-fc-dordrecht",
    "name": "FC Dordrecht",
    "country": "Netherlands",
    "city": "Dordrecht",
    "stadium": "M-Scores Stadion",
    "latitude": 51.802192854574606,
    "longitude": 4.690664371373563,
    "capacity": 4235,
    "tier": "professional"
  },
  {
    "id": "netherlands-fc-eindhoven",
    "name": "FC Eindhoven",
    "country": "Netherlands",
    "city": "Eindhoven",
    "stadium": "Jan Louwers Stadion",
    "latitude": 51.411870739420515,
    "longitude": 5.478470175617978,
    "capacity": 4600,
    "tier": "professional"
  },
  {
    "id": "netherlands-fc-emmen",
    "name": "FC Emmen",
    "country": "Netherlands",
    "city": "Emmen",
    "stadium": "De Oude Meerdijk",
    "latitude": 52.7748163706329,
    "longitude": 6.944704654209667,
    "capacity": 8600,
    "tier": "professional"
  },
  {
    "id": "netherlands-de-graafschap",
    "name": "De Graafschap",
    "country": "Netherlands",
    "city": "Doetinchem",
    "stadium": "De Vijverberg",
    "latitude": 51.95586292069452,
    "longitude": 6.309683796517285,
    "capacity": 12600,
    "tier": "professional"
  },
  {
    "id": "netherlands-helmond-sport",
    "name": "Helmond Sport",
    "country": "Netherlands",
    "city": "Helmond",
    "stadium": "De Braak",
    "latitude": 51.48716907562131,
    "longitude": 5.679054032079297,
    "capacity": 3600,
    "tier": "professional"
  },
  {
    "id": "netherlands-afc-ajax",
    "name": "Jong Ajax",
    "country": "Netherlands",
    "city": "Duivendrecht",
    "stadium": "Sportpark De Toekomst",
    "latitude": 52.31296199872448,
    "longitude": 4.9284649848807245,
    "capacity": 2250,
    "tier": "professional"
  },
  {
    "id": "netherlands-az-alkmaar",
    "name": "Jong AZ",
    "country": "Netherlands",
    "city": "Wijdewormer",
    "stadium": "AFAS Trainingscomplex",
    "latitude": 52.473584106142326,
    "longitude": 4.848972727214174,
    "capacity": 1000,
    "tier": "professional"
  },
  {
    "id": "netherlands-psv",
    "name": "Jong PSV",
    "country": "Netherlands",
    "city": "Eindhoven",
    "stadium": "PSV Campus De Herdgang",
    "latitude": 51.45903129931542,
    "longitude": 5.439273269516817,
    "capacity": 2500,
    "tier": "professional"
  },
  {
    "id": "netherlands-fc-utrecht",
    "name": "Jong FC Utrecht",
    "country": "Netherlands",
    "city": "Utrecht",
    "stadium": "Sportcomplex Zoudenbalch",
    "latitude": 52.074157734370736,
    "longitude": 5.146719023228524,
    "capacity": 450,
    "tier": "professional"
  },
  {
    "id": "netherlands-mvv-maastricht",
    "name": "MVV Maastricht",
    "country": "Netherlands",
    "city": "Maastricht",
    "stadium": "De Geusselt",
    "latitude": 50.85763344097192,
    "longitude": 5.717836327172072,
    "capacity": 10234,
    "tier": "professional"
  },
  {
    "id": "netherlands-roda-jc-kerkrade",
    "name": "Roda JC Kerkrade",
    "country": "Netherlands",
    "city": "Kerkrade",
    "stadium": "Parkstad Limburg Stadion",
    "latitude": 50.857144506629076,
    "longitude": 6.00591324251367,
    "capacity": 19979,
    "tier": "professional"
  },
  {
    "id": "netherlands-top-oss",
    "name": "TOP Oss",
    "country": "Netherlands",
    "city": "Oss",
    "stadium": "Frans Heesen Stadion",
    "latitude": 51.754889517803136,
    "longitude": 5.52760399835991,
    "capacity": 4561,
    "tier": "professional"
  },
  {
    "id": "netherlands-vitesse",
    "name": "Vitesse",
    "country": "Netherlands",
    "city": "Arnhem",
    "stadium": "GelreDome",
    "latitude": 51.96304483086744,
    "longitude": 5.892972442542378,
    "capacity": 21248,
    "tier": "professional"
  },
  {
    "id": "netherlands-vvv-venlo",
    "name": "VVV-Venlo",
    "country": "Netherlands",
    "city": "Venlo",
    "stadium": "De Koel",
    "latitude": 51.35244224402083,
    "longitude": 6.179646282159367,
    "capacity": 8000,
    "tier": "professional"
  },
  {
    "id": "netherlands-almere-city-fc",
    "name": "Almere City FC",
    "country": "Netherlands",
    "city": "Almere",
    "stadium": "Yanmar Stadion",
    "latitude": 52.393483220124565,
    "longitude": 5.241070156047496,
    "capacity": 4501,
    "tier": "professional"
  },
  {
    "id": "netherlands-willem-ii",
    "name": "Willem II",
    "country": "Netherlands",
    "city": "Tilburg",
    "stadium": "Koning Willem II Stadion",
    "latitude": 51.54280157835981,
    "longitude": 5.066919829037641,
    "capacity": 14800,
    "tier": "professional"
  },
  {
    "id": "netherlands-rkc-waalwijk",
    "name": "RKC Waalwijk",
    "country": "Netherlands",
    "city": "Waalwijk",
    "stadium": "Mandemakers Stadion",
    "latitude": 51.6867007378767,
    "longitude": 5.089004084864338,
    "capacity": 7508,
    "tier": "professional"
  },
  {
    "id": "brazil-athletico-paranaense",
    "name": "Athletico Paranaense",
    "country": "Brazil",
    "city": "Curitiba",
    "stadium": "Arena da Baixada",
    "latitude": -25.448311896239034,
    "longitude": -49.276439228928886,
    "capacity": 42372,
    "tier": "professional"
  },
  {
    "id": "brazil-atletico-mineiro",
    "name": "Atlético Mineiro",
    "country": "Brazil",
    "city": "Belo Horizonte",
    "stadium": "Arena MRV",
    "latitude": -19.929814441882666,
    "longitude": -44.01381510019278,
    "capacity": 46000,
    "tier": "professional"
  },
  {
    "id": "brazil-bahia",
    "name": "Bahia",
    "country": "Brazil",
    "city": "Salvador",
    "stadium": "Arena Fonte Nova",
    "latitude": -12.978625109025002,
    "longitude": -38.50430952700041,
    "capacity": 50025,
    "tier": "professional"
  },
  {
    "id": "brazil-botafogo",
    "name": "Botafogo",
    "country": "Brazil",
    "city": "Rio de Janeiro",
    "stadium": "Estádio Nilton Santos",
    "latitude": -22.893087088042304,
    "longitude": -43.292302073153934,
    "capacity": 46831,
    "tier": "professional"
  },
  {
    "id": "brazil-chapecoense",
    "name": "Chapecoense",
    "country": "Brazil",
    "city": "Chapecó",
    "stadium": "Arena Condá",
    "latitude": -27.103900565506905,
    "longitude": -52.606839984718604,
    "capacity": 20089,
    "tier": "professional"
  },
  {
    "id": "brazil-corinthians",
    "name": "Corinthians",
    "country": "Brazil",
    "city": "São Paulo",
    "stadium": "Neo Química Arena",
    "latitude": -23.545350495746515,
    "longitude": -46.47509548848355,
    "capacity": 49205,
    "tier": "professional"
  },
  {
    "id": "brazil-coritiba",
    "name": "Coritiba",
    "country": "Brazil",
    "city": "Curitiba",
    "stadium": "Estádio Major Antônio Couto Pereira",
    "latitude": -25.420772386235132,
    "longitude": -49.25941592892952,
    "capacity": 40502,
    "tier": "professional"
  },
  {
    "id": "brazil-cruzeiro",
    "name": "Cruzeiro",
    "country": "Brazil",
    "city": "Belo Horizonte",
    "stadium": "Estádio Governador Magalhães Pinto (Mineirão)",
    "latitude": -19.865634902730857,
    "longitude": -43.97113150204156,
    "capacity": 62160,
    "tier": "professional"
  },
  {
    "id": "brazil-flamengo",
    "name": "Flamengo",
    "country": "Brazil",
    "city": "Rio de Janeiro",
    "stadium": "Maracanã",
    "latitude": -22.911973214178172,
    "longitude": -43.230171201988966,
    "capacity": 78838,
    "tier": "professional"
  },
  {
    "id": "brazil-fluminense",
    "name": "Fluminense",
    "country": "Brazil",
    "city": "Rio de Janeiro",
    "stadium": "Maracanã",
    "latitude": -22.912263409725686,
    "longitude": -43.230519737479455,
    "capacity": 78838,
    "tier": "professional"
  },
  {
    "id": "brazil-gremio",
    "name": "Grêmio",
    "country": "Brazil",
    "city": "Porto Alegre",
    "stadium": "Arena do Grêmio",
    "latitude": -29.97376749703582,
    "longitude": -51.19479674417669,
    "capacity": 55662,
    "tier": "professional"
  },
  {
    "id": "brazil-internacional",
    "name": "Internacional",
    "country": "Brazil",
    "city": "Porto Alegre",
    "stadium": "Estádio Beira-Rio",
    "latitude": -30.06546608056504,
    "longitude": -51.23591363068072,
    "capacity": 50128,
    "tier": "professional"
  },
  {
    "id": "brazil-mirassol",
    "name": "Mirassol",
    "country": "Brazil",
    "city": "Mirassol",
    "stadium": "Estádio José Maria de Campos Maia",
    "latitude": -20.822186002829582,
    "longitude": -49.506388773190054,
    "capacity": 15203,
    "tier": "professional"
  },
  {
    "id": "brazil-palmeiras",
    "name": "Palmeiras",
    "country": "Brazil",
    "city": "São Paulo",
    "stadium": "Allianz Parque",
    "latitude": -23.527404266235937,
    "longitude": -46.678466201977976,
    "capacity": 43713,
    "tier": "professional"
  },
  {
    "id": "brazil-red-bull-bragantino",
    "name": "Red Bull Bragantino",
    "country": "Brazil",
    "city": "Bragança Paulista",
    "stadium": "Nabi Abi Chedid Stadium",
    "latitude": -22.950884745234514,
    "longitude": -46.530076844317605,
    "capacity": 12000,
    "tier": "professional"
  },
  {
    "id": "brazil-remo",
    "name": "Remo",
    "country": "Brazil",
    "city": "Belém",
    "stadium": "Estadio Evandro Almeida (Baenão)",
    "latitude": -1.4449415900553035,
    "longitude": -48.466145917583205,
    "capacity": 13792,
    "tier": "professional"
  },
  {
    "id": "brazil-santos",
    "name": "Santos",
    "country": "Brazil",
    "city": "Santos",
    "stadium": "Vila Belmiro",
    "latitude": -23.95099707343978,
    "longitude": -46.33882365964057,
    "capacity": 17923,
    "tier": "professional"
  },
  {
    "id": "brazil-sao-paulo",
    "name": "São Paulo",
    "country": "Brazil",
    "city": "São Paulo",
    "stadium": "MorumBIS",
    "latitude": -23.600781655601267,
    "longitude": -46.720039401976265,
    "capacity": 72039,
    "tier": "professional"
  },
  {
    "id": "brazil-vasco-da-gama",
    "name": "Vasco da Gama",
    "country": "Brazil",
    "city": "Rio de Janeiro",
    "stadium": "Estádio São Januário",
    "latitude": -22.89095721731301,
    "longitude": -43.228117803837286,
    "capacity": 21880,
    "tier": "professional"
  },
  {
    "id": "brazil-vitoria",
    "name": "Vitória",
    "country": "Brazil",
    "city": "Salvador",
    "stadium": "Estadio Manoel Barradas (Barradão)",
    "latitude": -12.919318157001312,
    "longitude": -38.42821650214124,
    "capacity": 35618,
    "tier": "professional"
  },
  {
    "id": "brazil-america-mineiro",
    "name": "América Mineiro",
    "country": "Brazil",
    "city": "Belo Horizonte",
    "stadium": "Arena Independência",
    "latitude": -19.90855894093879,
    "longitude": -43.91801163217173,
    "capacity": 23018,
    "tier": "professional"
  },
  {
    "id": "brazil-athletic-club",
    "name": "Athletic Club",
    "latitude": -21.127398422009826,
    "longitude": -44.24339723770443,
    "country": "Brazil",
    "city": "São João del-Rei",
    "stadium": "Arena Sicredi",
    "capacity": 4655,
    "tier": "professional"
  },
  {
    "id": "brazil-atletico-goianiense",
    "name": "Atlético Goianiense",
    "country": "Brazil",
    "city": "Goiânia",
    "stadium": "Antônio Accioly",
    "latitude": -16.670852782215686,
    "longitude": -49.28460587456272,
    "capacity": 12089,
    "tier": "professional"
  },
  {
    "id": "brazil-avai",
    "name": "Avaí",
    "country": "Brazil",
    "city": "Florianópolis",
    "stadium": "Ressacada",
    "latitude": -27.666372337310367,
    "longitude": -48.53161961663141,
    "capacity": 17800,
    "tier": "professional"
  },
  {
    "id": "brazil-botafogo-sp",
    "name": "Botafogo-SP",
    "country": "Brazil",
    "city": "Ribeirão Preto",
    "stadium": "Estádio Santa Cruz",
    "latitude": -21.201916325636038,
    "longitude": -47.79006960145384,
    "capacity": 29292,
    "tier": "professional"
  },
  {
    "id": "brazil-ceara",
    "name": "Ceará",
    "country": "Brazil",
    "city": "Fortaleza",
    "stadium": "Arena Castelão",
    "latitude": -3.807133523945792,
    "longitude": -38.522368730524455,
    "capacity": 63903,
    "tier": "professional"
  },
  {
    "id": "brazil-crb",
    "name": "CRB",
    "country": "Brazil",
    "city": "Maceió",
    "stadium": "Rei Pelé",
    "latitude": -9.670692415740389,
    "longitude": -35.75940508815372,
    "capacity": 19105,
    "tier": "professional"
  },
  {
    "id": "brazil-criciuma",
    "name": "Criciúma",
    "country": "Brazil",
    "city": "Criciúma",
    "stadium": "Heriberto Hülse",
    "latitude": -28.68419700792709,
    "longitude": -49.36769151660149,
    "capacity": 19300,
    "tier": "professional"
  },
  {
    "id": "brazil-cuiaba",
    "name": "Cuiabá",
    "country": "Brazil",
    "city": "Cuiabá",
    "stadium": "Arena Pantanal",
    "latitude": -15.60380368065563,
    "longitude": -56.12162093488562,
    "capacity": 42968,
    "tier": "professional"
  },
  {
    "id": "brazil-ferroviaria",
    "name": "Ferroviária",
    "country": "Brazil",
    "city": "Araraquara",
    "stadium": "Arena Fonte Luminosa",
    "latitude": -21.77510017744262,
    "longitude": -48.17026577445766,
    "capacity": 25000,
    "tier": "professional"
  },
  {
    "id": "brazil-fortaleza",
    "name": "Fortaleza",
    "country": "Brazil",
    "city": "Fortaleza",
    "stadium": "Castelão",
    "latitude": -3.806561050387308,
    "longitude": -38.52231710186853,
    "capacity": 57867,
    "tier": "professional"
  },
  {
    "id": "brazil-goias",
    "name": "Goiás",
    "country": "Brazil",
    "city": "Goiânia",
    "stadium": "Estádio da Serrinha",
    "latitude": -16.710307905245397,
    "longitude": -49.26118078620037,
    "capacity": 14450,
    "tier": "professional"
  },
  {
    "id": "brazil-juventude",
    "name": "Juventude",
    "country": "Brazil",
    "city": "Caxias do Sul",
    "stadium": "Alfredo Jaconi",
    "latitude": -29.162187335498892,
    "longitude": -51.176180203095655,
    "capacity": 19924,
    "tier": "professional"
  },
  {
    "id": "brazil-londrina",
    "name": "Londrina",
    "country": "Brazil",
    "city": "Londrina",
    "stadium": "Estádio do Café",
    "latitude": -23.282251072115983,
    "longitude": -51.164886416749454,
    "capacity": 30000,
    "tier": "professional"
  },
  {
    "id": "brazil-nautico",
    "name": "Náutico",
    "country": "Brazil",
    "city": "Recife",
    "stadium": "Aflitos",
    "latitude": -8.040367155576053,
    "longitude": -34.896796812261066,
    "capacity": 22856,
    "tier": "professional"
  },
  {
    "id": "brazil-novorizontino",
    "name": "Novorizontino",
    "country": "Brazil",
    "city": "Novo Horizonte",
    "stadium": "Doutor Jorge Ismael de Biasi",
    "latitude": -21.4671563966649,
    "longitude": -49.23242276097334,
    "capacity": 16000,
    "tier": "professional"
  },
  {
    "id": "brazil-operario-ferroviario",
    "name": "Operário Ferroviário",
    "country": "Brazil",
    "city": "Ponta Grossa",
    "stadium": "Germano Krüger",
    "latitude": -25.115972274905687,
    "longitude": -50.156523801357906,
    "capacity": 10632,
    "tier": "professional"
  },
  {
    "id": "brazil-ponte-preta",
    "name": "Ponte Preta",
    "country": "Brazil",
    "city": "Campinas",
    "stadium": "Estádio Moisés Lucarelli",
    "latitude": -22.912496797316255,
    "longitude": -47.05064406279241,
    "capacity": 19722,
    "tier": "professional"
  },
  {
    "id": "brazil-sao-bernardo",
    "name": "São Bernardo",
    "country": "Brazil",
    "city": "São Bernardo do Campo",
    "stadium": "Estádio Primeiro de Maio",
    "latitude": -23.699592946387522,
    "longitude": -46.555349887902764,
    "capacity": 12578,
    "tier": "professional"
  },
  {
    "id": "brazil-sport-recife",
    "name": "Sport",
    "country": "Brazil",
    "city": "Recife",
    "stadium": "Estádio Ilha do Retiro",
    "latitude": -8.062982200092797,
    "longitude": -34.903186684720644,
    "capacity": 32983,
    "tier": "professional"
  },
  {
    "id": "brazil-vila-nova",
    "name": "Vila Nova",
    "country": "Brazil",
    "city": "Goiânia",
    "stadium": "Estádio Onésio Brasileiro Alvarenga",
    "latitude": -16.67287680633858,
    "longitude": -49.23754884572654,
    "capacity": 11788,
    "tier": "professional"
  }
]