[
  {
    "id": "netherlands-afc-ajax",
    "name": "Ajax",
    "country": "Netherlands",
    "city": "Amsterdam",
    "stadium": "Johan Cruyff Arena",
    "latitude": 52.31457426207562,
    "longitude": 4.941864814158152,
    "capacity": 55865,
    "tier": "professional"
  },
  {
    "id": "netherlands-az-alkmaar",
    "name": "AZ",
    "country": "Netherlands",
    "city": "Alkmaar",
    "stadium": "AFAS Stadium",
    "latitude": 52.61293447600286,
    "longitude": 4.74206105652524,
    "capacity": 19500,
    "tier": "professional"
  },
  {
    "id": "netherlands-excelsior-rotterdam",
    "name": "Excelsior Rotterdam",
    "country": "Netherlands",
    "city": "Rotterdam",
    "stadium": "Van Donge & De Roo Stadion",
    "latitude": 51.917417904487635,
    "longitude": 4.519812755521161,
    "capacity": 4400,
    "tier": "professional"
  },
  {
    "id": "netherlands-fc-groningen",
    "name": "FC Groningen",
    "country": "Netherlands",
    "city": "Groningen",
    "stadium": "Euroborg Stadium",
    "latitude": 53.206261760661505,
    "longitude": 6.591239774609432,
    "capacity": 22550,
    "tier": "professional"
  },
  {
    "id": "netherlands-feyenoord",
    "name": "Feyenoord",
    "country": "Netherlands",
    "city": "Rotterdam",
    "stadium": "Stadion Feijenoord (De Kuip)",
    "latitude": 51.89403661707197,
    "longitude": 4.523202226657144,
    "capacity": 47500,
    "tier": "professional"
  },
  {
    "id": "netherlands-fortuna-sittard",
    "name": "Fortuna Sittard",
    "country": "Netherlands",
    "city": "Sittard",
    "stadium": "Fortuna Sittard Stadion",
    "latitude": 50.9920981854425,
    "longitude": 5.8437041419577715,
    "capacity": 12000,
    "tier": "professional"
  },
  {
    "id": "netherlands-go-ahead-eagles",
    "name": "Go Ahead Eagles",
    "country": "Netherlands",
    "city": "Deventer",
    "stadium": "De Adelaarshorst",
    "latitude": 52.26045840879131,
    "longitude": 6.172597555511405,
    "capacity": 10000,
    "tier": "professional"
  },
  {
    "id": "netherlands-sc-heerenveen",
    "name": "sc Heerenveen",
    "country": "Netherlands",
    "city": "Heerenveen",
    "stadium": "Abe Lenstra Stadion",
    "latitude": 52.958262843566345,
    "longitude": 5.936799455545991,
    "capacity": 27224,
    "tier": "professional"
  },
  {
    "id": "netherlands-heracles-almelo",
    "name": "Heracles Almelo",
    "country": "Netherlands",
    "city": "Almelo",
    "stadium": "Asito Stadion",
    "latitude": 52.33917766518072,
    "longitude": 6.6509865420238095,
    "capacity": 12080,
    "tier": "professional"
  },
  {
    "id": "netherlands-nac-breda",
    "name": "NAC Breda",
    "country": "Netherlands",
    "city": "Breda",
    "stadium": "Rat Verlegh Stadium",
    "latitude": 51.59490901087713,
    "longitude": 4.750366827191135,
    "capacity": 20500,
    "tier": "professional"
  },
  {
    "id": "netherlands-nec-nijmegen",
    "name": "N.E.C. Nijmegen",
    "country": "Netherlands",
    "city": "Nijmegen",
    "stadium": "Goffertstadion",
    "latitude": 51.82253500167679,
    "longitude": 5.837236498361646,
    "capacity": 12650,
    "tier": "professional"
  },
  {
    "id": "netherlands-pec-zwolle",
    "name": "PEC Zwolle",
    "country": "Netherlands",
    "city": "Zwolle",
    "stadium": "MAC³PARK stadion",
    "latitude": 52.51729626052382,
    "longitude": 6.1209173560507315,
    "capacity": 14000,
    "tier": "professional"
  },
  {
    "id": "netherlands-psv",
    "name": "PSV",
    "country": "Netherlands",
    "city": "Eindhoven",
    "stadium": "Philips Stadion",
    "latitude": 51.44185444458988,
    "longitude": 5.467469256022608,
    "capacity": 35000,
    "tier": "professional"
  },
  {
    "id": "netherlands-sparta-rotterdam",
    "name": "Sparta Rotterdam",
    "country": "Netherlands",
    "city": "Rotterdam",
    "stadium": "Sparta Stadion Het Kasteel",
    "latitude": 51.92009848001512,
    "longitude": 4.433150400212042,
    "capacity": 11000,
    "tier": "professional"
  },
  {
    "id": "netherlands-telstar",
    "name": "Telstar",
    "country": "Netherlands",
    "city": "Velsen-Zuid",
    "stadium": "BUKO stadium",
    "latitude": 52.455311268848526,
    "longitude": 4.633974927213698,
    "capacity": 5338,
    "tier": "professional"
  },
  {
    "id": "netherlands-fc-twente",
    "name": "FC Twente",
    "country": "Netherlands",
    "city": "Enschede",
    "stadium": "De Grolsch Veste",
    "latitude": 52.23663702733821,
    "longitude": 6.83782521186628,
    "capacity": 30000,
    "tier": "professional"
  },
  {
    "id": "netherlands-fc-utrecht",
    "name": "FC Utrecht",
    "country": "Netherlands",
    "city": "Utrecht",
    "stadium": "Stadion Galgenwaard",
    "latitude": 52.07848905312732,
    "longitude": 5.145867313710011,
    "capacity": 23750,
    "tier": "professional"
  },
  {
    "id": "netherlands-fc-volendam",
    "name": "FC Volendam",
    "country": "Netherlands",
    "city": "Volendam",
    "stadium": "Kras Stadion",
    "latitude": 52.49452752163647,
    "longitude": 5.066227469543893,
    "capacity": 6800,
    "tier": "professional"
  },
  {
    "id": "netherlands-ado-den-haag",
    "name": "ADO Den Haag",
    "country": "Netherlands",
    "city": "Den Haag",
    "stadium": "WerkTalent Stadion",
    "latitude": 52.062849412734664,
    "longitude": 4.382417113709586,
    "capacity": 15000,
    "tier": "professional"
  },
  {
    "id": "netherlands-sc-cambuur",
    "name": "SC Cambuur",
    "country": "Netherlands",
    "city": "Leeuwarden",
    "stadium": "Kooi Stadion",
    "latitude": 53.20061410700173,
    "longitude": 5.768331898398082,
    "capacity": 15000,
    "tier": "professional"
  },
  {
    "id": "netherlands-fc-den-bosch",
    "name": "FC Den Bosch",
    "country": "Netherlands",
    "city": "'s-Hertogenbosch",
    "stadium": "de Vliert",
    "latitude": 51.70149950976517,
    "longitude": 5.329118467675247,
    "capacity": 6936,
    "tier": "professional"
  },
  {
    "id": "netherlands-fc-dordrecht",
    "name": "FC Dordrecht",
    "country": "Netherlands",
    "city": "Dordrecht",
    "stadium": "M-Scores Stadion",
    "latitude": 51.802192854574606,
    "longitude": 4.690664371373563,
    "capacity": 4235,
    "tier": "professional"
  },
  {
    "id": "netherlands-fc-eindhoven",
    "name": "FC Eindhoven",
    "country": "Netherlands",
    "city": "Eindhoven",
    "stadium": "Jan Louwers Stadion",
    "latitude": 51.411870739420515,
    "longitude": 5.478470175617978,
    "capacity": 4600,
    "tier": "professional"
  },
  {
    "id": "netherlands-fc-emmen",
    "name": "FC Emmen",
    "country": "Netherlands",
    "city": "Emmen",
    "stadium": "De Oude Meerdijk",
    "latitude": 52.7748163706329,
    "longitude": 6.944704654209667,
    "capacity": 8600,
    "tier": "professional"
  },
  {
    "id": "netherlands-de-graafschap",
    "name": "De Graafschap",
    "country": "Netherlands",
    "city": "Doetinchem",
    "stadium": "De Vijverberg",
    "latitude": 51.95586292069452,
    "longitude": 6.309683796517285,
    "capacity": 12600,
    "tier": "professional"
  },
  {
    "id": "netherlands-helmond-sport",
    "name": "Helmond Sport",
    "country": "Netherlands",
    "city": "Helmond",
    "stadium": "De Braak",
    "latitude": 51.48716907562131,
    "longitude": 5.679054032079297,
    "capacity": 3600,
    "tier": "professional"
  },
  {
    "id": "netherlands-afc-ajax",
    "name": "Jong Ajax",
    "country": "Netherlands",
    "city": "Duivendrecht",
    "stadium": "Sportpark De Toekomst",
    "latitude": 52.31296199872448,
    "longitude": 4.9284649848807245,
    "capacity": 2250,
    "tier": "professional"
  },
  {
    "id": "netherlands-az-alkmaar",
    "name": "Jong AZ",
    "country": "Netherlands",
    "city": "Wijdewormer",
    "stadium": "AFAS Trainingscomplex",
    "latitude": 52.473584106142326,
    "longitude": 4.848972727214174,
    "capacity": 1000,
    "tier": "professional"
  },
  {
    "id": "netherlands-psv",
    "name": "Jong PSV",
    "country": "Netherlands",
    "city": "Eindhoven",
    "stadium": "PSV Campus De Herdgang",
    "latitude": 51.45903129931542,
    "longitude": 5.439273269516817,
    "capacity": 2500,
    "tier": "professional"
  },
  {
    "id": "netherlands-fc-utrecht",
    "name": "Jong FC Utrecht",
    "country": "Netherlands",
    "city": "Utrecht",
    "stadium": "Sportcomplex Zoudenbalch",
    "latitude": 52.074157734370736,
    "longitude": 5.146719023228524,
    "capacity": 450,
    "tier": "professional"
  },
  {
    "id": "netherlands-mvv-maastricht",
    "name": "MVV Maastricht",
    "country": "Netherlands",
    "city": "Maastricht",
    "stadium": "De Geusselt",
    "latitude": 50.85763344097192,
    "longitude": 5.717836327172072,
    "capacity": 10234,
    "tier": "professional"
  },
  {
    "id": "netherlands-roda-jc-kerkrade",
    "name": "Roda JC Kerkrade",
    "country": "Netherlands",
    "city": "Kerkrade",
    "stadium": "Parkstad Limburg Stadion",
    "latitude": 50.857144506629076,
    "longitude": 6.00591324251367,
    "capacity": 19979,
    "tier": "professional"
  },
  {
    "id": "netherlands-top-oss",
    "name": "TOP Oss",
    "country": "Netherlands",
    "city": "Oss",
    "stadium": "Frans Heesen Stadion",
    "latitude": 51.754889517803136,
    "longitude": 5.52760399835991,
    "capacity": 4561,
    "tier": "professional"
  },
  {
    "id": "netherlands-vitesse",
    "name": "Vitesse",
    "country": "Netherlands",
    "city": "Arnhem",
    "stadium": "GelreDome",
    "latitude": 51.96304483086744,
    "longitude": 5.892972442542378,
    "capacity": 21248,
    "tier": "professional"
  },
  {
    "id": "netherlands-vvv-venlo",
    "name": "VVV-Venlo",
    "country": "Netherlands",
    "city": "Venlo",
    "stadium": "De Koel",
    "latitude": 51.35244224402083,
    "longitude": 6.179646282159367,
    "capacity": 8000,
    "tier": "professional"
  },
  {
    "id": "netherlands-almere-city-fc",
    "name": "Almere City FC",
    "country": "Netherlands",
    "city": "Almere",
    "stadium": "Yanmar Stadion",
    "latitude": 52.393483220124565,
    "longitude": 5.241070156047496,
    "capacity": 4501,
    "tier": "professional"
  },
  {
    "id": "netherlands-willem-ii",
    "name": "Willem II",
    "country": "Netherlands",
    "city": "Tilburg",
    "stadium": "Koning Willem II Stadion",
    "latitude": 51.54280157835981,
    "longitude": 5.066919829037641,
    "capacity": 14800,
    "tier": "professional"
  },
  {
    "id": "netherlands-rkc-waalwijk",
    "name": "RKC Waalwijk",
    "country": "Netherlands",
    "city": "Waalwijk",
    "stadium": "Mandemakers Stadion",
    "latitude": 51.6867007378767,
    "longitude": 5.089004084864338,
    "capacity": 7508,
    "tier": "professional"
  },
  {
    "id": "netherlands-acv",
    "name": "ACV",
    "country": "Netherlands",
    "city": "Assen",
    "stadium": "Univé Sportpark (Stadsbroek)",
    "latitude": 52.9822461927554,
    "longitude": 6.547029797496635,
    "tier": "amateur"
  },
  {
    "id": "netherlands-amsterdamsche-fc",
    "name": "AFC (Amsterdamsche FC)",
    "country": "Netherlands",
    "city": "Amsterdam",
    "stadium": "Sportpark Goed Genoeg",
    "latitude": 52.337724668942414,
    "longitude": 4.882195056046026,
    "capacity": 8000,
    "tier": "amateur"
  },
  {
    "id": "netherlands-bvv-barendrecht",
    "name": "BVV Barendrecht",
    "country": "Netherlands",
    "city": "Barendrecht",
    "stadium": "Sportpark Nieuw Vosseveld",
    "latitude": 51.86068081524456,
    "longitude": 4.543270140691871,
    "capacity": 1500,
    "tier": "amateur"
  },
  {
    "id": "netherlands-excelsior-maassluis",
    "name": "Excelsior Maassluis",
    "country": "Netherlands",
    "city": "Maassluis",
    "stadium": "Sportpark Dijkpolder",
    "latitude": 51.92738897673117,
    "longitude": 4.256647227199788,
    "capacity": null,
    "tier": "amateur"
  },
  {
    "id": "brazil-athletico-paranaense",
    "name": "Athletico Paranaense",
    "country": "Brazil",
    "city": "Curitiba",
    "stadium": "Arena da Baixada",
    "latitude": -25.448311896239034,
    "longitude": -49.276439228928886,
    "capacity": 42372,
    "tier": "professional"
  },
  {
    "id": "brazil-atletico-mineiro",
    "name": "Atlético Mineiro",
    "country": "Brazil",
    "city": "Belo Horizonte",
    "stadium": "Arena MRV",
    "latitude": -19.929814441882666,
    "longitude": -44.01381510019278,
    "capacity": 46000,
    "tier": "professional"
  },
  {
    "id": "brazil-bahia",
    "name": "Bahia",
    "country": "Brazil",
    "city": "Salvador",
    "stadium": "Arena Fonte Nova",
    "latitude": -12.978625109025002,
    "longitude": -38.50430952700041,
    "capacity": 50025,
    "tier": "professional"
  },
  {
    "id": "brazil-botafogo",
    "name": "Botafogo",
    "country": "Brazil",
    "city": "Rio de Janeiro",
    "stadium": "Estádio Nilton Santos",
    "latitude": -22.893087088042304,
    "longitude": -43.292302073153934,
    "capacity": 46831,
    "tier": "professional"
  },
  {
    "id": "brazil-chapecoense",
    "name": "Chapecoense",
    "country": "Brazil",
    "city": "Chapecó",
    "stadium": "Arena Condá",
    "latitude": -27.103900565506905,
    "longitude": -52.606839984718604,
    "capacity": 20089,
    "tier": "professional"
  },
  {
    "id": "brazil-corinthians",
    "name": "Corinthians",
    "country": "Brazil",
    "city": "São Paulo",
    "stadium": "Neo Química Arena",
    "latitude": -23.545350495746515,
    "longitude": -46.47509548848355,
    "capacity": 49205,
    "tier": "professional"
  },
  {
    "id": "brazil-coritiba",
    "name": "Coritiba",
    "country": "Brazil",
    "city": "Curitiba",
    "stadium": "Estádio Major Antônio Couto Pereira",
    "latitude": -25.420772386235132,
    "longitude": -49.25941592892952,
    "capacity": 40502,
    "tier": "professional"
  },
  {
    "id": "brazil-cruzeiro",
    "name": "Cruzeiro",
    "country": "Brazil",
    "city": "Belo Horizonte",
    "stadium": "Estádio Governador Magalhães Pinto (Mineirão)",
    "latitude": -19.865634902730857,
    "longitude": -43.97113150204156,
    "capacity": 62160,
    "tier": "professional"
  },
  {
    "id": "brazil-flamengo",
    "name": "Flamengo",
    "country": "Brazil",
    "city": "Rio de Janeiro",
    "stadium": "Maracanã",
    "latitude": -22.911973214178172,
    "longitude": -43.230171201988966,
    "capacity": 78838,
    "tier": "professional"
  },
  {
    "id": "brazil-fluminense",
    "name": "Fluminense",
    "country": "Brazil",
    "city": "Rio de Janeiro",
    "stadium": "Maracanã",
    "latitude": -22.912263409725686,
    "longitude": -43.230519737479455,
    "capacity": 78838,
    "tier": "professional"
  },
  {
    "id": "brazil-gremio",
    "name": "Grêmio",
    "country": "Brazil",
    "city": "Porto Alegre",
    "stadium": "Arena do Grêmio",
    "latitude": -29.97376749703582,
    "longitude": -51.19479674417669,
    "capacity": 55662,
    "tier": "professional"
  },
  {
    "id": "brazil-internacional",
    "name": "Internacional",
    "country": "Brazil",
    "city": "Porto Alegre",
    "stadium": "Estádio Beira-Rio",
    "latitude": -30.06546608056504,
    "longitude": -51.23591363068072,
    "capacity": 50128,
    "tier": "professional"
  },
  {
    "id": "brazil-mirassol",
    "name": "Mirassol",
    "country": "Brazil",
    "city": "Mirassol",
    "stadium": "Estádio José Maria de Campos Maia",
    "latitude": -20.822186002829582,
    "longitude": -49.506388773190054,
    "capacity": 15203,
    "tier": "professional"
  },
  {
    "id": "brazil-palmeiras",
    "name": "Palmeiras",
    "country": "Brazil",
    "city": "São Paulo",
    "stadium": "Allianz Parque",
    "latitude": -23.527404266235937,
    "longitude": -46.678466201977976,
    "capacity": 43713,
    "tier": "professional"
  },
  {
    "id": "brazil-red-bull-bragantino",
    "name": "Red Bull Bragantino",
    "country": "Brazil",
    "city": "Bragança Paulista",
    "stadium": "Nabi Abi Chedid Stadium",
    "latitude": -22.950884745234514,
    "longitude": -46.530076844317605,
    "capacity": 12000,
    "tier": "professional"
  },
  {
    "id": "brazil-remo",
    "name": "Remo",
    "country": "Brazil",
    "city": "Belém",
    "stadium": "Estadio Evandro Almeida (Baenão)",
    "latitude": -1.4449415900553035,
    "longitude": -48.466145917583205,
    "capacity": 13792,
    "tier": "professional"
  },
  {
    "id": "brazil-santos",
    "name": "Santos",
    "country": "Brazil",
    "city": "Santos",
    "stadium": "Vila Belmiro",
    "latitude": -23.95099707343978,
    "longitude": -46.33882365964057,
    "capacity": 17923,
    "tier": "professional"
  },
  {
    "id": "brazil-sao-paulo",
    "name": "São Paulo",
    "country": "Brazil",
    "city": "São Paulo",
    "stadium": "MorumBIS",
    "latitude": -23.600781655601267,
    "longitude": -46.720039401976265,
    "capacity": 72039,
    "tier": "professional"
  },
  {
    "id": "brazil-vasco-da-gama",
    "name": "Vasco da Gama",
    "country": "Brazil",
    "city": "Rio de Janeiro",
    "stadium": "Estádio São Januário",
    "latitude": -22.89095721731301,
    "longitude": -43.228117803837286,
    "capacity": 21880,
    "tier": "professional"
  },
  {
    "id": "brazil-vitoria",
    "name": "Vitória",
    "country": "Brazil",
    "city": "Salvador",
    "stadium": "Estadio Manoel Barradas (Barradão)",
    "latitude": -12.919318157001312,
    "longitude": -38.42821650214124,
    "capacity": 35618,
    "tier": "professional"
  },
  {
    "id": "brazil-america-mineiro",
    "name": "América Mineiro",
    "country": "Brazil",
    "city": "Belo Horizonte",
    "stadium": "Arena Independência",
    "latitude": -19.90855894093879,
    "longitude": -43.91801163217173,
    "capacity": 23018,
    "tier": "professional"
  },
  {
    "id": "brazil-athletic-club",
    "name": "Athletic Club",
    "latitude": -21.127398422009826,
    "longitude": -44.24339723770443,
    "country": "Brazil",
    "city": "São João del-Rei",
    "stadium": "Arena Sicredi",
    "capacity": 4655,
    "tier": "professional"
  },
  {
    "id": "brazil-atletico-goianiense",
    "name": "Atlético Goianiense",
    "country": "Brazil",
    "city": "Goiânia",
    "stadium": "Antônio Accioly",
    "latitude": -16.670852782215686,
    "longitude": -49.28460587456272,
    "capacity": 12089,
    "tier": "professional"
  },
  {
    "id": "brazil-avai",
    "name": "Avaí",
    "country": "Brazil",
    "city": "Florianópolis",
    "stadium": "Ressacada",
    "latitude": -27.666372337310367,
    "longitude": -48.53161961663141,
    "capacity": 17800,
    "tier": "professional"
  },
  {
    "id": "brazil-botafogo-sp",
    "name": "Botafogo-SP",
    "country": "Brazil",
    "city": "Ribeirão Preto",
    "stadium": "Estádio Santa Cruz",
    "latitude": -21.201916325636038,
    "longitude": -47.79006960145384,
    "capacity": 29292,
    "tier": "professional"
  },
  {
    "id": "brazil-ceara",
    "name": "Ceará",
    "country": "Brazil",
    "city": "Fortaleza",
    "stadium": "Arena Castelão",
    "latitude": -3.807133523945792,
    "longitude": -38.522368730524455,
    "capacity": 63903,
    "tier": "professional"
  },
  {
    "id": "brazil-crb",
    "name": "CRB",
    "country": "Brazil",
    "city": "Maceió",
    "stadium": "Rei Pelé",
    "latitude": -9.670692415740389,
    "longitude": -35.75940508815372,
    "capacity": 20800,
    "tier": "professional"
  },
  {
    "id": "brazil-criciuma",
    "name": "Criciúma",
    "country": "Brazil",
    "city": "Criciúma",
    "stadium": "Heriberto Hülse",
    "latitude": -28.68419700792709,
    "longitude": -49.36769151660149,
    "capacity": 19300,
    "tier": "professional"
  },
  {
    "id": "brazil-cuiaba",
    "name": "Cuiabá",
    "country": "Brazil",
    "city": "Cuiabá",
    "stadium": "Arena Pantanal",
    "latitude": -15.60380368065563,
    "longitude": -56.12162093488562,
    "capacity": 42968,
    "tier": "professional"
  },
  {
    "id": "brazil-ferroviaria",
    "name": "Ferroviária",
    "country": "Brazil",
    "city": "Araraquara",
    "stadium": "Arena Fonte Luminosa",
    "latitude": -21.77510017744262,
    "longitude": -48.17026577445766,
    "capacity": 25000,
    "tier": "professional"
  },
  {
    "id": "brazil-fortaleza",
    "name": "Fortaleza",
    "country": "Brazil",
    "city": "Fortaleza",
    "stadium": "Castelão",
    "latitude": -3.806561050387308,
    "longitude": -38.52231710186853,
    "capacity": 57867,
    "tier": "professional"
  },
  {
    "id": "brazil-goias",
    "name": "Goiás",
    "country": "Brazil",
    "city": "Goiânia",
    "stadium": "Estádio da Serrinha",
    "latitude": -16.710307905245397,
    "longitude": -49.26118078620037,
    "capacity": 14450,
    "tier": "professional"
  },
  {
    "id": "brazil-juventude",
    "name": "Juventude",
    "country": "Brazil",
    "city": "Caxias do Sul",
    "stadium": "Alfredo Jaconi",
    "latitude": -29.162187335498892,
    "longitude": -51.176180203095655,
    "capacity": 19924,
    "tier": "professional"
  },
  {
    "id": "brazil-londrina",
    "name": "Londrina",
    "country": "Brazil",
    "city": "Londrina",
    "stadium": "Estádio do Café",
    "latitude": -23.282251072115983,
    "longitude": -51.164886416749454,
    "capacity": 30000,
    "tier": "professional"
  },
  {
    "id": "brazil-nautico",
    "name": "Náutico",
    "country": "Brazil",
    "city": "Recife",
    "stadium": "Aflitos",
    "latitude": -8.040367155576053,
    "longitude": -34.896796812261066,
    "capacity": 22856,
    "tier": "professional"
  },
  {
    "id": "brazil-novorizontino",
    "name": "Novorizontino",
    "country": "Brazil",
    "city": "Novo Horizonte",
    "stadium": "Doutor Jorge Ismael de Biasi",
    "latitude": -21.4671563966649,
    "longitude": -49.23242276097334,
    "capacity": 12398,
    "tier": "professional"
  },
  {
    "id": "brazil-operario-ferroviario",
    "name": "Operário Ferroviário",
    "country": "Brazil",
    "city": "Ponta Grossa",
    "stadium": "Germano Krüger",
    "latitude": -25.115972274905687,
    "longitude": -50.156523801357906,
    "capacity": 10632,
    "tier": "professional"
  },
  {
    "id": "brazil-ponte-preta",
    "name": "Ponte Preta",
    "country": "Brazil",
    "city": "Campinas",
    "stadium": "Estádio Moisés Lucarelli",
    "latitude": -22.912496797316255,
    "longitude": -47.05064406279241,
    "capacity": 19722,
    "tier": "professional"
  },
  {
    "id": "brazil-sao-bernardo",
    "name": "São Bernardo",
    "country": "Brazil",
    "city": "São Bernardo do Campo",
    "stadium": "Estádio Primeiro de Maio",
    "latitude": -23.699592946387522,
    "longitude": -46.555349887902764,
    "capacity": 12578,
    "tier": "professional"
  },
  {
    "id": "brazil-sport-recife",
    "name": "Sport",
    "country": "Brazil",
    "city": "Recife",
    "stadium": "Estádio Ilha do Retiro",
    "latitude": -8.062982200092797,
    "longitude": -34.903186684720644,
    "capacity": 32983,
    "tier": "professional"
  },
  {
    "id": "brazil-vila-nova",
    "name": "Vila Nova",
    "country": "Brazil",
    "city": "Goiânia",
    "stadium": "Estádio Onésio Brasileiro Alvarenga",
    "latitude": -16.67287680633858,
    "longitude": -49.23754884572654,
    "capacity": 11788,
    "tier": "professional"
  },
  {
    "id": "brazil-amazonas-fc",
    "name": "Amazonas",
    "country": "Brazil",
    "city": "Manaus",
    "stadium": "Estádio Municipal Carlos Zamith",
    "latitude": -3.0841439309892262,
    "longitude": -59.983913517035674,
    "capacity": 10000,
    "tier": "professional"
  },
  {
    "id": "brazil-anapolis",
    "name": "Anápolis",
    "country": "Brazil",
    "city": "Anápolis",
    "stadium": "Estádio Jonas Duarte",
    "latitude": -16.346155090889212,
    "longitude": -48.95551231689614,
    "capacity": 14400,
    "tier": "professional"
  },
  {
    "id": "brazil-barra-sc",
    "name": "Barra-SC",
    "country": "Brazil",
    "city": "Itajaí",
    "stadium": "Estádio das Nações",
    "latitude": -26.948361316833154,
    "longitude": -48.674870760832974,
    "capacity": 5500,
    "tier": "professional"
  },
  {
    "id": "brazil-botafogo-pb",
    "name": "Botafogo-PB",
    "country": "Brazil",
    "city": "João Pessoa",
    "stadium": "Almeidão",
    "latitude": -7.166977882715719,
    "longitude": -34.87338423050432,
    "capacity": 25000,
    "tier": "professional"
  },
  {
    "id": "brazil-brusque",
    "name": "Brusque",
    "country": "Brazil",
    "city": "Brusque",
    "stadium": "Augusto Bauer",
    "latitude": -27.101233510687475,
    "longitude": -48.91592490130327,
    "capacity": 5000,
    "tier": "professional"
  },
  {
    "id": "brazil-caxias",
    "name": "Caxias",
    "country": "Brazil",
    "city": "Caxias do Sul",
    "stadium": "Estádio Centenário",
    "latitude": -29.164791327220737,
    "longitude": -51.196420005738645,
    "capacity": 22132,
    "tier": "professional"
  },
  {
    "id": "brazil-confianca",
    "name": "Confiança",
    "country": "Brazil",
    "city": "Aracaju",
    "stadium": "Batistão",
    "latitude": -10.927260168857671,
    "longitude": -37.049071161156725,
    "capacity": 15500,
    "tier": "professional"
  },
  {
    "id": "brazil-figueirense",
    "name": "Figueirense",
    "country": "Brazil",
    "city": "Florianópolis",
    "stadium": "Orlando Scarpelli",
    "latitude": -27.58543756496782,
    "longitude": -48.58645441663383,
    "capacity": 19584,
    "tier": "professional"
  },
  {
    "id": "brazil-floresta",
    "name": "Floresta",
    "country": "Brazil",
    "city": "Fortaleza",
    "stadium": "Presidente Vargas",
    "latitude": -3.7456946036731638,
    "longitude": -38.53678276643124,
    "capacity": 20268,
    "tier": "professional"
  },
  {
    "id": "brazil-guarani",
    "name": "Guarani",
    "country": "Brazil",
    "city": "Campinas",
    "stadium": "Brinco de Ouro",
    "latitude": -22.910540277216484,
    "longitude": -47.04347644559462,
    "capacity": 29130,
    "tier": "professional"
  },
  {
    "id": "brazil-inter-de-limeira",
    "name": "Inter de Limeira",
    "country": "Brazil",
    "city": "Limeira",
    "stadium": "Estádio Major José Levy Sobrinho",
    "latitude": -22.555157299391674,
    "longitude": -47.38506551676693,
    "capacity": 23475,
    "tier": "professional"
  },
  {
    "id": "brazil-itabaiana",
    "name": "Itabaiana",
    "country": "Brazil",
    "city": "Itabaiana",
    "stadium": "Etelvino Mendonça",
    "latitude": -10.688392507572674,
    "longitude": -37.43193467465114,
    "capacity": 12000,
    "tier": "professional"
  },
  {
    "id": "brazil-ituano",
    "name": "Ituano",
    "country": "Brazil",
    "city": "Itu",
    "stadium": "Novelli Júnior",
    "latitude": -23.280435470639127,
    "longitude": -47.28793338791319,
    "capacity": 18560,
    "tier": "professional"
  },
  {
    "id": "brazil-maranhao",
    "name": "Maranhão",
    "country": "Brazil",
    "city": "São Luís",
    "stadium": "Castelão (MA)",
    "latitude": -2.5485156965173417,
    "longitude": -44.26008586121818,
    "capacity": 40149,
    "tier": "professional"
  },
  {
    "id": "brazil-maringa",
    "name": "Maringá",
    "country": "Brazil",
    "city": "Maringá",
    "stadium": "Estádio Willie Davids",
    "latitude": -23.41490319118956,
    "longitude": -51.93796276092702,
    "capacity": 16226,
    "tier": "professional"
  },
  {
    "id": "brazil-paysandu",
    "name": "Paysandu",
    "country": "Brazil",
    "city": "Belém",
    "stadium": "Curuzu",
    "latitude": -1.443842837061842,
    "longitude": -48.46277343578593,
    "capacity": 16200,
    "tier": "professional"
  },
  {
    "id": "brazil-santa-cruz",
    "name": "Santa Cruz",
    "country": "Brazil",
    "city": "Recife",
    "stadium": "Arruda",
    "latitude": -8.026486717412244,
    "longitude": -34.89107901700571,
    "capacity": 60000,
    "tier": "professional"
  },
  {
    "id": "brazil-volta-redonda",
    "name": "Volta Redonda",
    "country": "Brazil",
    "city": "Volta Redonda",
    "stadium": "Raulino de Oliveira",
    "latitude": -22.5081337367475,
    "longitude": -44.09685283211281,
    "capacity": 18230,
    "tier": "professional"
  },
  {
    "id": "brazil-ypiranga",
    "name": "Ypiranga",
    "country": "Brazil",
    "city": "Erechim",
    "stadium": "Colosso da Lagoa",
    "latitude": -27.651879821471013,
    "longitude": -52.26534806081288,
    "capacity": 22000,
    "tier": "professional"
  },
  {
    "id": "brazil-abc",
    "name": "ABC",
    "country": "Brazil",
    "city": "Natal",
    "stadium": "Frasqueirão",
    "latitude": -5.888426695506383,
    "longitude": -35.17952610126991,
    "capacity": 18000,
    "tier": "professional"
  },
  {
    "id": "brazil-ouvidorense",
    "name": "Abecat Ouvidorense",
    "country": "Brazil",
    "city": "Ouvidor",
    "stadium": "Estádio Municipal Luiz Benedito",
    "capacity": 1000,
    "latitude": -18.23116677752873,
    "longitude": -47.83499545918878,
    "tier": "professional"
  },
  {
    "id": "brazil-agua-santa",
    "name": "Água Santa",
    "country": "Brazil",
    "city": "Diadema",
    "stadium": "Distrital do Jardim Inamar",
    "latitude": -23.722600977556638,
    "longitude": -46.6130448744107,
    "capacity": 10000,
    "tier": "professional"
  },
  {
    "id": "brazil-aguia-de-maraba",
    "name": "Águia de Marabá",
    "country": "Brazil",
    "city": "Marabá",
    "stadium": "Zinho de Oliveira",
    "latitude": -5.351921653376309,
    "longitude": -49.13851970538682,
    "capacity": 5500,
    "tier": "professional"
  },
  {
    "id": "brazil-altos",
    "name": "Altos",
    "country": "Brazil",
    "city": "Altos",
    "stadium": "Felipão",
    "latitude": -5.038170384196968,
    "longitude": -42.445379961207756,
    "capacity": 4000,
    "tier": "professional"
  },
  {
    "id": "brazil-america-rn",
    "name": "América-RN",
    "country": "Brazil",
    "city": "Natal",
    "stadium": "Arena das Dunas",
    "latitude": -5.8266133526528785,
    "longitude": -35.21238911702239,
    "capacity": 32000,
    "tier": "professional"
  },
  {
    "id": "brazil-america-rj",
    "name": "América",
    "country": "Brazil",
    "city": "Mesquita",
    "stadium": "Giulite Coutinho",
    "latitude": -22.795201935351145,
    "longitude": -43.41980248977845,
    "capacity": 13544,
    "tier": "professional"
  },
  {
    "id": "brazil-aparecidense",
    "name": "Aparecidense",
    "country": "Brazil",
    "city": "Aparecida de Goiânia",
    "stadium": "Annibal Batista de Toledo",
    "latitude": -16.820280806623764,
    "longitude": -49.245236807773956,
    "capacity": 4800,
    "tier": "professional"
  },
  {
    "id": "brazil-araguaina",
    "name": "Araguaína",
    "country": "Brazil",
    "city": "Araguaína",
    "stadium": "Mirandão",
    "latitude": -7.225239076345283,
    "longitude": -48.25491056119333,
    "capacity": 10000,
    "tier": "professional"
  },
  {
    "id": "brazil-asa",
    "name": "ASA",
    "country": "Brazil",
    "city": "Arapiraca",
    "stadium": "Estádio Municipal Coaracy da Mata Fonseca",
    "latitude": -9.74670783284389,
    "longitude": -36.66661394582548,
    "capacity": 15332,
    "tier": "professional"
  },
  {
    "id": "brazil-atletico-de-alagoinhas",
    "name": "Atlético de Alagoinhas",
    "country": "Brazil",
    "city": "Alagoinhas",
    "stadium": "Carneirão",
    "latitude": -12.140187654712879,
    "longitude": -38.41499413045232,
    "capacity": 18000,
    "tier": "professional"
  },
  {
    "id": "brazil-azuriz",
    "name": "Azuriz",
    "country": "Brazil",
    "city": "Pato Branco",
    "stadium": "Estádio Os Pioneiros",
    "latitude": -26.21088631822437,
    "longitude": -52.68020151667278,
    "capacity": 1200,
    "tier": "professional"
  },
  {
    "id": "brazil-blumenau",
    "name": "Blumenau",
    "country": "Brazil",
    "city": "Blumenau",
    "stadium": "SESI Blumenau",
    "latitude": -26.909417972734943,
    "longitude": -49.03399560336473,
    "capacity": 1000,
    "tier": "professional"
  },
  {
    "id": "brazil-brasil-de-pelotas",
    "name": "Brasil de Pelotas",
    "country": "Brazil",
    "city": "Pelotas",
    "stadium": "Estádio Bento Freitas",
    "latitude": -31.770894792106716,
    "longitude": -52.3324513453407,
    "capacity": 10200,
    "tier": "professional"
  },
  {
    "id": "brazil-brasiliense",
    "name": "Brasiliense",
    "country": "Brazil",
    "city": "Taguatinga",
    "stadium": "Boca do Jacaré",
    "latitude": -15.836034268440024,
    "longitude": -48.08070008992201,
    "capacity": 27000,
    "tier": "professional"
  },
  {
    "id": "brazil-capital-df",
    "name": "Capital",
    "country": "Brazil",
    "city": "Paranoá",
    "stadium": "Arena da Coruja - Estádio JK",
    "latitude": -15.7792813659538,
    "longitude": -47.786184432250586,
    "capacity": 5000,
    "tier": "professional"
  },
  {
    "id": "brazil-ceilandia",
    "name": "Ceilândia",
    "country": "Brazil",
    "city": "Ceilândia",
    "stadium": "Abadião",
    "latitude": -15.827294221125044,
    "longitude": -48.10980271690506,
    "capacity": 5000,
    "tier": "professional"
  },
  {
    "id": "brazil-central-sc",
    "name": "Central",
    "country": "Brazil",
    "city": "Caruaru",
    "stadium": "Lacerdão",
    "latitude": -8.278460653206377,
    "longitude": -35.97299570351203,
    "capacity": 19800,
    "tier": "professional"
  },
  {
    "id": "brazil-cianorte",
    "name": "Cianorte",
    "country": "Brazil",
    "city": "Cianorte",
    "stadium": "Estádio Municipal Olímpico",
    "latitude": -23.66157656807914,
    "longitude": -52.594124087903694,
    "capacity": 2500,
    "tier": "professional"
  },
  {
    "id": "brazil-crac",
    "name": "CRAC",
    "country": "Brazil",
    "city": "Catalão",
    "stadium": "Estádio Genervino da Fonseca",
    "latitude": -18.167343630858102,
    "longitude": -47.95308024569861,
    "capacity": 9000,
    "tier": "professional"
  },
  {
    "id": "brazil-csa",
    "name": "CSA",
    "country": "Brazil",
    "city": "Maceió",
    "stadium": "Rei Pelé",
    "latitude": -9.67152794820353,
    "longitude": -35.75943727316023,
    "capacity": 20800,
    "tier": "professional"
  },
  {
    "id": "brazil-cse",
    "name": "CSE",
    "country": "Brazil",
    "city": "Palmeira dos Índios",
    "stadium": "Juca Sampaio",
    "latitude": -9.413240103591505,
    "longitude": -36.635296878619265,
    "capacity": 8000,
    "tier": "professional"
  },
  {
    "id": "brazil-decisao",
    "name": "Decisão",
    "country": "Brazil",
    "city": "Goiania",
    "stadium": "Estádio José Dionísio do Carmo",
    "latitude": -7.561869995046695,
    "longitude": -35.01235033050121,
    "capacity": 8000,
    "tier": "professional"
  },
  {
    "id": "brazil-democrata-gv",
    "name": "Democrata GV",
    "country": "Brazil",
    "city": "Governador Valadares",
    "stadium": "Mamudão",
    "latitude": -18.849273633826723,
    "longitude": -41.94106798986603,
    "capacity": 8675,
    "tier": "professional"
  },
  {
    "id": "brazil-fc-cascavel",
    "name": "FC Cascavel",
    "country": "Brazil",
    "city": "Cascavel",
    "stadium": "Estádio Olímpico Regional Arnaldo Busatto",
    "latitude": -24.974987319446274,
    "longitude": -53.50208592463803,
    "capacity": 28125,
    "tier": "professional"
  },
  {
    "id": "brazil-ferroviario-atletico-clube",
    "name": "Ferroviário Atlético Clube",
    "country": "Brazil",
    "city": "Fortaleza",
    "stadium": "Estádio Elzir Cabral",
    "latitude": -3.7087600816821586,
    "longitude": -38.58844338634403,
    "capacity": 4200,
    "tier": "professional"
  },
  {
    "id": "brazil-Fluminense-pi",
    "name": "Fluminense-PI",
    "country": "Brazil",
    "city": "Teresina",
    "stadium": "Albertão",
    "latitude": -5.1161943035143045,
    "longitude": -42.79315056120741,
    "capacity": 52300,
    "tier": "professional"
  },
  {
    "id": "brazil-galvez-ec",
    "name": "Galvez EC",
    "country": "Brazil",
    "city": "Rio Branco",
    "stadium": "Arena da Floresta",
    "latitude": -10.002238303622729,
    "longitude": -67.80366701698642,
    "capacity": 13784,
    "tier": "professional"
  },
  {
    "id": "brazil-gama",
    "name": "Gama",
    "country": "Brazil",
    "city": "Gama",
    "stadium": "Bezerrão",
    "latitude": -16.011199782477025,
    "longitude": -48.06182897642742,
    "capacity": 20310,
    "tier": "professional"
  },
  {
    "id": "brazil-gas",
    "name": "GAS",
    "country": "Brazil",
    "city": "Boa Vista",
    "stadium": "Canarinho",
    "latitude": 2.8190592142209905,
    "longitude": -60.721221817036536,
    "capacity": 3000,
    "tier": "professional"
  },
  {
    "id": "brazil-goiatuba-ec",
    "name": "Goiatuba",
    "country": "Brazil",
    "city": "Goiatuba",
    "stadium": "Divino Garcia Rosa",
    "latitude": -18.015990549382014,
    "longitude": -49.365567659193246,
    "capacity": 15000,
    "tier": "professional"
  },
  {
    "id": "brazil-guapore",
    "name": "Guaporé",
    "country": "Brazil",
    "city": "Rolim de Moura",
    "stadium": "Estádio Cassolão",
    "latitude": -11.730904822080761,
    "longitude": -61.76552743045762,
    "capacity": 4300,
    "tier": "professional"
  },
  {
    "id": "brazil-guarany-de-bage",
    "name": "Guarany de Bagé",
    "country": "Brazil",
    "city": "Bagé",
    "stadium": "Estrela D'Alva",
    "latitude": -31.335503368870313,
    "longitude": -54.095688989535674,
    "capacity": 5000,
    "tier": "professional"
  },
  {
    "id": "brazil-humaita",
    "name": "Humaitá",
    "country": "Brazil",
    "city": "Porto Acre",
    "stadium": "Arena da Floresta",
    "latitude": -10.002534154887117,
    "longitude": -67.80411762456173,
    "capacity": null,
    "tier": "professional"
  },
  {
    "id": "brazil-iape",
    "name": "IAPE",
    "country": "Brazil",
    "city": "São Luís",
    "stadium": "Estádio Municipal Nhozinho Santos",
    "latitude": -2.536199259204192,
    "longitude": -44.28915624587353,
    "capacity": 12891,
    "tier": "professional"
  },
  {
    "id": "brazil-iguatu",
    "name": "Iguatu",
    "country": "Brazil",
    "city": "Iguatu",
    "stadium": "Estádio Antonio Moreno (Morenão)",
    "latitude": -6.367582027495734,
    "longitude": -39.302685745854774,
    "capacity": 3600,
    "tier": "professional"
  },
  {
    "id": "brazil-imperatriz",
    "name": "Imperatriz",
    "country": "Brazil",
    "city": "Imperatriz",
    "stadium": "Estádio Frei Epifânio D'Abadia",
    "latitude": -5.52521851471771,
    "longitude": -47.488614990041185,
    "capacity": 10000,
    "tier": "professional"
  },
  {
    "id": "brazil-independencia-fc",
    "name": "Independência FC",
    "country": "Brazil",
    "city": "Rio Branco",
    "stadium": "Marinho Monte",
    "latitude": -9.963324752818673,
    "longitude": -67.80376727465925,
    "capacity": 1000,
    "tier": "professional"
  },
  {
    "id": "brazil-inhumas-ec",
    "name": "Inhumas",
    "country": "Brazil",
    "city": "Inhumas",
    "stadium": "Zico Brandão",
    "latitude": -16.373075337895177,
    "longitude": -49.49257462317264,
    "capacity": 4380,
    "tier": "professional"
  },
  {
    "id": "brazil-jacuipense",
    "name": "Jacuipense",
    "country": "Brazil",
    "city": "Riachão do Jacuípe",
    "stadium": "Arena Valfredão",
    "latitude": -11.80821706335081,
    "longitude": -39.37990556114606,
    "capacity": 5000,
    "tier": "professional"
  },
  {
    "id": "brazil-joinville-ec",
    "name": "Joinville",
    "country": "Brazil",
    "city": "Joinville",
    "stadium": "Arena Joinville",
    "latitude": -26.316490721344707,
    "longitude": -48.833532895506124,
    "capacity": 22675,
    "tier": "professional"
  },
  {
    "id": "brazil-juazeirense",
    "name": "Juazeirense",
    "country": "Brazil",
    "city": "Juazeiro",
    "stadium": "Adauto Moraes",
    "latitude": -9.415401041913421,
    "longitude": -40.503592632337515,
    "capacity": 8000,
    "tier": "professional"
  },
  {
    "id": "brazil-lagarto-fc",
    "name": "Lagarto FC",
    "country": "Brazil",
    "city": "Lagarto",
    "stadium": "Barretão",
    "latitude": -10.922310268600752,
    "longitude": -37.67184820163143,
    "capacity": 8000,
    "tier": "professional"
  },
  {
    "id": "brazil-laguna",
    "name": "Laguna",
    "country": "Brazil",
    "city": "Tibau do Sul",
    "stadium": "Nazarenão",
    "latitude": -6.281532449489632,
    "longitude": -35.2050122077537,
    "capacity": 7000,
    "tier": "professional"
  },
  {
    "id": "brazil-luverdense",
    "name": "Luverdense",
    "country": "Brazil",
    "city": "Lucas do Rio Verde",
    "stadium": "Passo das Emas",
    "latitude": -13.074346026555823,
    "longitude": -55.92419140212621,
    "capacity": 10000,
    "tier": "professional"
  },
  {
    "id": "brazil-madureira-ec",
    "name": "Madureira EC",
    "country": "Brazil",
    "city": "Rio de Janeiro",
    "stadium": "Estádio Conselheiro Galvão",
    "latitude": -22.869540041023104,
    "longitude": -43.33725000197726,
    "capacity": 4272,
    "tier": "professional"
  },
  {
    "id": "brazil-maguary",
    "name": "Maguary",
    "country": "Brazil",
    "city": "Recife",
    "stadium": "Estádio Municipal Arthur Tavares de Melo",
    "latitude": -8.47241842136785,
    "longitude": -35.73504111567019,
    "capacity": 4000,
    "tier": "professional"
  },
  {
    "id": "brazil-manaus-fc",
    "name": "Manaus FC",
    "country": "Brazil",
    "city": "Manaus",
    "stadium": "Estádio Carlos Zamith",
    "latitude": -3.0841867761420305,
    "longitude": -59.983956443154696,
    "capacity": 6500,
    "tier": "professional"
  },
  {
    "id": "brazil-manauara-ec",
    "name": "Manauara EC",
    "country": "Brazil",
    "city": "Manaus",
    "stadium": "Estádio Ismael Benigno",
    "latitude": -3.1214789514315484,
    "longitude": -60.037271286876944,
    "capacity": 10000,
    "tier": "professional"
  },
  {
    "id": "brazil-marcilio-dias",
    "name": "Marcílio Dias",
    "country": "Brazil",
    "city": "Itajaí",
    "stadium": "Gigantão das Avenidas",
    "latitude": -26.908230366242886,
    "longitude": -48.65979093073566,
    "capacity": 6010,
    "tier": "professional"
  },
  {
    "id": "brazil-maracana",
    "name": "Maracanã",
    "country": "Brazil",
    "city": "Maracanaú",
    "stadium": "Estádio Prefeito Almir Dutra",
    "latitude": -3.8813662157876663,
    "longitude": -38.630581615707285,
    "capacity": 2500,
    "tier": "professional"
  },
  {
    "id": "brazil-marica-fc",
    "name": "Maricá FC",
    "country": "Brazil",
    "city": "Maricá",
    "stadium": "Estádio Alzirão",
    "latitude": -22.95241484971007,
    "longitude": -42.74740673081115,
    "capacity": 2000,
    "tier": "professional"
  },
  {
    "id": "brazil-mixto-ec",
    "name": "Mixto EC",
    "country": "Brazil",
    "city": "Cuiabá",
    "stadium": "Estádio Dutrinha",
    "latitude": -15.60726175339794,
    "longitude": -56.10471750209319,
    "capacity": 9000,
    "tier": "professional"
  },
  {
    "id": "brazil-monte-roraima",
    "name": "Monte Roraima",
    "country": "Brazil",
    "city": "Boa Vista",
    "stadium": "Estádio Canarinho",
    "latitude": 2.8315859748553756,
    "longitude": -60.6615637117626,
    "capacity": 4556,
    "tier": "professional"
  },
  {
    "id": "brazil-moto-club",
    "name": "Moto Club",
    "latitude": -2.5361135059777977,
    "longitude": -44.289199172001005,
    "country": "Brazil",
    "city": "São Luís",
    "stadium": "Estádio Municipal Nhozinho Santos",
    "capacity": 12891,
    "tier": "professional"
  },
  {
    "id": "brazil-nacional-fc-am",
    "name": "Nacional AM",
    "country": "Brazil",
    "city": "Manaus",
    "stadium": "Arena da Amazônia",
    "latitude": -3.083042144069145,
    "longitude": -60.028160659889494,
    "capacity": 44300,
    "tier": "professional"
  },
  {
    "id": "brazil-noroeste-bauru",
    "name": "Noroeste",
    "latitude": -22.32481266197739,
    "longitude": -49.09815821548102,
    "country": "Brazil",
    "city": "Bauru",
    "stadium": "Estádio Alfredo de Castilho",
    "capacity": 18866,
    "tier": "professional"
  },
  {
    "id": "brazil-nova-iguacu-fc",
    "name": "Nova Iguaçu FC",
    "country": "Brazil",
    "city": "Nova Iguaçu",
    "stadium": "Estádio Laranjão",
    "latitude": -22.74803052340439,
    "longitude": -43.460923999597604,
    "capacity": 4700,
    "tier": "professional"
  },
  {
    "id": "brazil-operario-vg",
    "name": "Operário VG",
    "latitude": -15.644687351869285,
    "longitude": -56.10752604610468,
    "country": "Brazil",
    "city": "Várzea Grande",
    "stadium": "Arena Pantanal",
    "capacity": 2600,
    "tier": "professional"
  },
  {
    "id": "brazil-operario-ms",
    "name": "Operário-MS",
    "country": "Brazil",
    "city": "Campo Grande",
    "stadium": "Estádio Morenão",
    "latitude": -20.56034349937403,
    "longitude": -54.576325430684655,
    "capacity": 3500,
    "tier": "professional"
  },
  {
    "id": "brazil-oratorio-rc",
    "name": "Oratório",
    "country": "Brazil",
    "city": "Macapá",
    "stadium": "Zerão",
    "latitude": -0.000038844710004439115,
    "longitude": -51.080828777975924,
    "capacity": 13680,
    "tier": "professional"
  },
  {
    "id": "brazil-pantanal",
    "name": "Pantanal",
    "country": "Brazil",
    "city": "Campo Grande",
    "stadium": "Jacques da Luz",
    "latitude": -20.56036439962851,
    "longitude": -54.57633142883163,
    "capacity": 4500,
    "tier": "professional"
  },
  {
    "id": "brazil-parnahyba-sc",
    "name": "Parnahyba SC",
    "latitude": -2.92955304519573,
    "longitude": -41.75236692903463,
    "country": "Brazil",
    "city": "Parnaíba",
    "stadium": "Pedro Alelaf",
    "capacity": 5000,
    "tier": "professional"
  },
  {
    "id": "brazil-piaui-ec",
    "name": "Piauí",
    "country": "Brazil",
    "city": "Teresina",
    "stadium": "Albertão",
    "latitude": -5.116098128661404,
    "longitude": -42.793107644364284,
    "capacity": 52296,
    "tier": "professional"
  },
  {
    "id": "brazil-porto-ba",
    "name": "Porto-BA",
    "country": "Brazil",
    "city": "Teresina",
    "stadium": "Albertão",
    "latitude": -16.44544399609753,
    "longitude": -39.06683548842113,
    "capacity": 5000,
    "tier": "professional"
  },
  {
    "id": "brazil-porto-velho-ec",
    "name": "Porto Velho EC",
    "country": "Brazil",
    "city": "Porto Velho",
    "stadium": "Estádio Aluízio Ferreira",
    "latitude": -8.757011708417108,
    "longitude": -63.911111502005454,
    "capacity": 4000,
    "tier": "professional"
  },
  {
    "id": "brazil-portuguesa",
    "name": "Portuguesa",
    "country": "Brazil",
    "city": "São Paulo",
    "stadium": "Canindé",
    "latitude": -23.520186804231354,
    "longitude": -46.61871511528768,
    "capacity": 22004,
    "tier": "professional"
  },
  {
    "id": "brazil-portuguesa-rj",
    "name": "Portuguesa-RJ",
    "country": "Brazil",
    "city": "Rio de Janeiro",
    "stadium": "Estádio Luso Brasileiro",
    "latitude": -22.801438351902824,
    "longitude": -43.20778348646458,
    "capacity": 6437,
    "tier": "professional"
  },
  {
    "id": "brazil-pouso-alegre-fc",
    "name": "Pouso Alegre",
    "country": "Brazil",
    "city": "Pouso Alegre",
    "stadium": "Manduzão",
    "latitude": -22.251215540072014,
    "longitude": -45.92152188400615,
    "capacity": 26000,
    "tier": "professional"
  },
  {
    "id": "brazil-primavera-ec",
    "name": "Primavera-MT",
    "country": "Brazil",
    "city": "Primavera do Leste",
    "stadium": "Estádio Cerradão",
    "latitude": -15.567062785461207,
    "longitude": -54.327332930761074,
    "capacity": 3000,
    "tier": "professional"
  },
  {
    "id": "brazil-real-noroeste",
    "name": "Real Noroeste",
    "country": "Brazil",
    "city": "Águia Branca",
    "stadium": "José Olímpio da Rocha",
    "latitude": -18.846451116847774,
    "longitude": -40.745724388384666,
    "capacity": 5200,
    "tier": "professional"
  },
  {
    "id": "brazil-retro-fc",
    "name": "Retrô",
    "country": "Brazil",
    "city": "Camaragibe",
    "stadium": "Arena Pernambuco",
    "latitude": -8.040396907831864,
    "longitude": -35.00819753084857,
    "capacity": 44300,
    "tier": "professional"
  },
  {
    "id": "brazil-rio-branco-es",
    "name": "Rio Branco-ES",
    "country": "Brazil",
    "city": "Vitória",
    "stadium": "Estádio Kléber Andrade",
    "latitude": -20.332758995292807,
    "longitude": -40.385175201852235,
    "capacity": 21000,
    "tier": "professional"
  },
  {
    "id": "brazil-sampaio-correa",
    "name": "Sampaio Corrêa",
    "country": "Brazil",
    "city": "São Luís",
    "stadium": "Estádio Governador João Castelo (Castelão)",
    "latitude": -2.548504978277917,
    "longitude": -44.260032215545344,
    "capacity": 40149,
    "tier": "professional"
  },
  {
    "id": "brazil-sampaio-correa-rj",
    "name": "Sampaio Corrêa-RJ",
    "country": "Brazil",
    "city": "Saquarema",
    "stadium": "Estádio Lourival Gomes de Almeida",
    "latitude": -22.83341179367234,
    "longitude": -42.596366444136585,
    "capacity": 6000,
    "tier": "professional"
  },
  {
    "id": "brazil-santa-catarina-fc",
    "name": "Santa Catarina",
    "country": "Brazil",
    "city": "Rio do Sul",
    "stadium": "Estádio das Nações",
    "latitude": -27.214505312178442,
    "longitude": -49.64987053056035,
    "capacity": 2959,
    "tier": "professional"
  },
  {
    "id": "brazil-sao-jose-rs",
    "name": "São José-RS",
    "country": "Brazil",
    "city": "Porto Alegre",
    "stadium": "Passo D'Areia",
    "latitude": -30.00642487650358,
    "longitude": -51.1735552016651,
    "capacity": 13000,
    "tier": "professional"
  },
  {
    "id": "brazil-sao-joseense",
    "name": "São Joseense",
    "country": "Brazil",
    "city": "São José dos Pinhais",
    "stadium": "Estádio do Pinhão",
    "latitude": -25.55076584483874,
    "longitude": -49.17243394408518,
    "capacity": 5200,
    "tier": "professional"
  },
  {
    "id": "brazil-sao-luiz",
    "name": "São Luiz",
    "country": "Brazil",
    "city": "Ijuí",
    "stadium": "19 de Outubro",
    "latitude": -28.39277838735989,
    "longitude": -53.91943927471676,
    "capacity": 3300,
    "tier": "professional"
  },
  {
    "id": "brazil-sao-raimundo-rr",
    "name": "São Raimundo-RR",
    "country": "Brazil",
    "city": "Boa Vista",
    "stadium": "Canarinho",
    "latitude": 2.8314359545222345,
    "longitude": -60.661413507895126,
    "capacity": 4556,
    "tier": "professional"
  },
  {
    "id": "brazil-serra-branca",
    "name": "Serra Branca",
    "country": "Brazil",
    "city": "Campina Grande",
    "stadium": "Amigão",
    "latitude": -7.253784776356103,
    "longitude": -35.88083944434672,
    "capacity": 23000,
    "tier": "professional"
  },
  {
    "id": "brazil-sergipe",
    "name": "Sergipe",
    "country": "Brazil",
    "city": "Aracaju",
    "stadium": "João Hora",
    "latitude": -10.923337838087388,
    "longitude": -37.07250868849143,
    "capacity": 6000,
    "tier": "professional"
  },
  {
    "id": "brazil-souza-ec",
    "name": "Sousa",
    "country": "Brazil",
    "city": "Sousa",
    "stadium": "Marizão",
    "latitude": -6.755811954153212,
    "longitude": -38.223130752283396,
    "capacity": 14000,
    "tier": "professional"
  },
  {
    "id": "brazil-tirol-ce",
    "name": "Tirol",
    "country": "Brazil",
    "city": "Fortaleza",
    "stadium": "Presidente Vargas",
    "latitude": -3.7456946133787152,
    "longitude": -38.53682565971848,
    "capacity": 20268,
    "tier": "professional"
  },
  {
    "id": "brazil-tocantinopolis-ec",
    "name": "Tocantinópolis EC",
    "country": "Brazil",
    "city": "Tocantinópolis",
    "stadium": "João Ribeiro (Chapadinha)",
    "latitude": -6.342819183066521,
    "longitude": -47.42806941551899,
    "capacity": 10150,
    "tier": "professional"
  },
  {
    "id": "brazil-tombense",
    "name": "Tombense",
    "country": "Brazil",
    "city": "Tombos",
    "stadium": "Estádio José Américo de Almeida Filho - Almeidão",
    "latitude": -7.166988527690304,
    "longitude": -34.873437873183725,
    "capacity": 6555,
    "tier": "professional"
  },
  {
    "id": "brazil-treze",
    "name": "Treze",
    "country": "Brazil",
    "city": "Campina Grande",
    "stadium": "Amigão",
    "capacity": 23000,
    "latitude": -3.7460050849249833,
    "longitude": -38.53731918618194,
    "tier": "professional"
  },
  {
    "id": "brazil-trem-dc",
    "name": "Trem",
    "country": "Brazil",
    "city": "Macapá",
    "stadium": "Zerão",
    "latitude": 0.001463192308978024,
    "longitude": -51.080828777975924,
    "capacity": 13680,
    "tier": "professional"
  },
  {
    "id": "brazil-tuna-luso-brasileira",
    "name": "Tuna Luso",
    "country": "Brazil",
    "city": "Belém",
    "stadium": "Estádio Francisco Vasques (Souza)",
    "latitude": -1.4185096328056614,
    "longitude": -48.44546611405249,
    "capacity": 6500,
    "tier": "professional"
  },
  {
    "id": "brazil-uberlandia-ec",
    "name": "Uberlândia",
    "country": "Brazil",
    "city": "Uberlândia",
    "stadium": "Parque do Sabiá",
    "latitude": -18.912907144116186,
    "longitude": -48.23298251432784,
    "capacity": 53352,
    "tier": "professional"
  },
  {
    "id": "brazil-uniao-rondonopolis",
    "name": "União Rondonópolis",
    "country": "Brazil",
    "city": "Rondonópolis",
    "stadium": "Estádio Engenheiro Luthero Lopes",
    "latitude": -16.45777258832009,
    "longitude": -54.60004527307615,
    "capacity": 19000,
    "tier": "professional"
  },
  {
    "id": "brazil-velo-clube",
    "name": "Velo Clube",
    "country": "Brazil",
    "city": "Rio Claro",
    "stadium": "Estádio Benitão",
    "latitude": -22.417938187220507,
    "longitude": -47.555780102335696,
    "capacity": 10000,
    "tier": "professional"
  },
  {
    "id": "brazil-vitoria-es",
    "name": "Vitória-ES",
    "country": "Brazil",
    "city": "Vitória",
    "stadium": "Estádio Salvador Venâncio da Costa",
    "latitude": -20.31614569864795,
    "longitude": -40.30835053068865,
    "capacity": 5800,
    "tier": "professional"
  },
  {
    "id": "brazil-xv-de-piracicaba",
    "name": "XV de Piracicaba",
    "country": "Brazil",
    "city": "Piracicaba",
    "stadium": "Estádio Barão de Serra Negra",
    "latitude": -22.729515449373014,
    "longitude": -47.63711564413837,
    "capacity": 18000,
    "tier": "professional"
  },
  {
    "id": "brazil-monsoon",
    "name": "Monsoon",
    "country": "Brazil",
    "city": "Capão da Canoa",
    "stadium": "Estádio Francisco Novelletto Neto (Passo d'Areia)",
    "latitude": -30.006452749028064,
    "longitude": -51.17352301515661,
    "capacity": 10600,
    "tier": "professional"
  },
  {
    "id": "brazil-ec-avenida",
    "name": "Avenida",
    "country": "Brazil",
    "city": "Santa Cruz do Sul",
    "stadium": "Estádio Francisco Novelletto Neto (Passo d'Areia)",
    "latitude": -29.706652218178036,
    "longitude": -52.4421712016716,
    "capacity": 3600,
    "tier": "professional"
  },
  {
    "id": "brazil-ec-pelotas",
    "name": "Pelotas",
    "country": "Brazil",
    "city": "Pelotas",
    "stadium": "Estádio Boca do Lobo",
    "latitude": -31.760822474127576,
    "longitude": -52.33599957278953,
    "capacity": 23336,
    "tier": "professional"
  },
  {
    "id": "brazil-ce-aimore",
    "name": "Aimoré",
    "country": "Brazil",
    "city": "São Leopoldo",
    "stadium": "Estádio João Corrêa da Silveira",
    "latitude": -29.78234978697702,
    "longitude": -51.155484301669915,
    "capacity": 10000,
    "tier": "professional"
  },
  {
    "id": "brazil-ge-bage",
    "name": "Bagé",
    "country": "Brazil",
    "city": "Bagé",
    "stadium": "Estádio João Corrêa da Silveira",
    "latitude": -31.329894814432766,
    "longitude": -54.116748630471655,
    "capacity": 10000,
    "tier": "professional"
  },
  {
    "id": "brazil-brasil-de-farroupilha",
    "name": "Brasil de Farroupilha",
    "country": "Brazil",
    "city": "Farroupilha",
    "stadium": "Estádio João Corrêa da Silveira",
    "latitude": -29.209108667460924,
    "longitude": -51.349518279796584,
    "capacity": 3500,
    "tier": "professional"
  },
  {
    "id": "brazil-clube-esportivo-bento-goncalves",
    "name": "Esportivo",
    "country": "Brazil",
    "city": "Bento Gonçalves",
    "stadium": "Parque Esportivo Montanha dos Vinhedos",
    "latitude": -29.15362415164512,
    "longitude": -51.53656552928887,
    "capacity": 12859,
    "tier": "professional"
  },
  {
    "id": "brazil-sport-clube-gaucho",
    "name": "Gaúcho",
    "country": "Brazil",
    "city": "Passo Fundo",
    "stadium": "Arena Be8",
    "latitude": -28.275634800028172,
    "longitude": -52.44023231704697,
    "capacity": 3338,
    "tier": "professional"
  },
  {
    "id": "brazil-ge-gloria",
    "name": "Glória",
    "country": "Brazil",
    "city": "Vacaria",
    "stadium": "Estádio Altos da Glória",
    "latitude": -28.497754963091126,
    "longitude": -50.954158790872945,
    "capacity": 8000,
    "tier": "professional"
  },
  {
    "id": "brazil-ce-gramadense",
    "name": "Gramadense",
    "country": "Brazil",
    "city": "Gramado",
    "stadium": "Estádio Ernesto Volk (Ernestão)",
    "latitude": -29.37769967825838,
    "longitude": -50.88260072422672,
    "capacity": 8000,
    "tier": "professional"
  },
  {
    "id": "brazil-ec-internacional",
    "name": "Inter de Santa Maria",
    "country": "Brazil",
    "city": "Santa Maria",
    "stadium": "Estádio Presidente Vargas (Baixada Melancólica)",
    "latitude": -29.691935192937727,
    "longitude": -53.82462190167196,
    "capacity": 8500,
    "tier": "professional"
  },
  {
    "id": "brazil-ce-lajeadense",
    "name": "Lajeadense",
    "country": "Brazil",
    "city": "Lajeado",
    "stadium": "Arena Alviazul",
    "latitude": -29.483762687271533,
    "longitude": -51.99992545934853,
    "capacity": 8000,
    "tier": "professional"
  },
  {
    "id": "brazil-ec-novo-hamburgo",
    "name": "Novo Hamburgo",
    "country": "Brazil",
    "city": "Novo Hamburgo",
    "stadium": "Estádio do Vale",
    "latitude": -29.72605893896678,
    "longitude": -51.14379954081755,
    "capacity": 5196,
    "tier": "professional"
  },
  {
    "id": "brazil-ec-passo-fundo",
    "name": "Passo Fundo",
    "country": "Brazil",
    "city": "Passo Fundo",
    "stadium": "Estádio RazaoInfo Vermelhão da Serra",
    "latitude": -28.281173812566536,
    "longitude": -52.37674283239119,
    "capacity": 15000,
    "tier": "professional"
  },
  {
    "id": "brazil-real-sport-club",
    "name": "Real",
    "country": "Brazil",
    "city": "Tramandaí",
    "stadium": "Estádio Municipal Eluzardo Caetano da Silva (Módulo Esportivo)",
    "latitude": -30.00339468804974,
    "longitude": -50.156124186320426,
    "capacity": 0,
    "tier": "professional"
  },
  {
    "id": "brazil-fc-santa-cruz-rs",
    "name": "Santa Cruz-RS",
    "country": "Brazil",
    "city": "Santa Cruz do Sul",
    "stadium": "Estádio dos Plátanos",
    "latitude": -29.709191796803758,
    "longitude": -52.422552772835175,
    "capacity": 2490,
    "tier": "professional"
  },
  {
    "id": "brazil-uniao-frederiquense",
    "name": "União Frederiquense",
    "country": "Brazil",
    "city": "Frederico Westphalen",
    "stadium": "Complexo Esportivo União Frederiquense (Arena União)",
    "latitude": -27.364277834266893,
    "longitude": -53.42509745460349,
    "capacity": 3000,
    "tier": "professional"
  },
  {
    "id": "brazil-veranopolis",
    "name": "Veranópolis",
    "country": "Brazil",
    "city": "Frederico Westphalen",
    "stadium": "Estádio Municipal Antônio David Farina",
    "latitude": -28.943193165850786,
    "longitude": -51.54983305750736,
    "capacity": 4720,
    "tier": "professional"
  },
  {
    "id": "brazil-jaboticabal-atletico",
    "name": "Jaboticabal Atlético",
    "country": "Brazil",
    "city": "Jaboticabal",
    "stadium": "Jardim das Rosas",
    "latitude": -21.270781598721722,
    "longitude": -48.35919139178482,
    "capacity": 0,
    "tier": "amateur"
  },
  {
    "id": "brazil-atletico-cearense",
    "name": "Atlético Cearense",
    "country": "Brazil",
    "city": "Fortaleza",
    "stadium": "Arena Arigooll Sports",
    "latitude": -3.818420615860641,
    "longitude": -38.449536932461,
    "capacity": 10000,
    "tier": "professional"
  },
  {
    "id": "brazil-capivariano",
    "name": "Capivariano",
    "country": "Brazil",
    "city": "Capivari",
    "stadium": "Estádio Municipal Carlos Colnaghi",
    "latitude": -22.993597355646948,
    "longitude": -47.514410055093826,
    "capacity": 14651,
    "tier": "professional"
  },
  {
    "id": "brazil-ec-primavera",
    "name": "Primavera",
    "country": "Brazil",
    "city": "Indaiatuba",
    "stadium": "Estádio Ítalo Mário Limongi",
    "latitude": -23.088419412098947,
    "longitude": -47.20478650180401,
    "capacity": 8022,
    "tier": "professional"
  },
  {
    "id": "brazil-rio-claro-fc",
    "name": "Rio Claro",
    "country": "Brazil",
    "city": "Rio Claro",
    "stadium": "Estádio Municipal Dr. Augusto Schmidt Filho",
    "latitude": -22.42227289619981,
    "longitude": -47.56196355948838,
    "capacity": 8284,
    "tier": "professional"
  },
  {
    "id": "brazil-at-portuguesa-santista",
    "name": "Portuguesa Santista",
    "country": "Brazil",
    "city": "Santos",
    "stadium": "Estádio Ulrico Mursa",
    "latitude": -23.946854866830815,
    "longitude": -46.337319330624304,
    "capacity": 8284,
    "tier": "professional"
  },
  {
    "id": "brazil-ec-sao-bento",
    "name": "São Bento",
    "country": "Brazil",
    "city": "Sorocaba",
    "stadium": "Estádio Municipal de Sorocaba Walter Ribeiro",
    "latitude": -23.490179744796453,
    "longitude": -47.448590944124504,
    "capacity": 13772,
    "tier": "professional"
  },
  {
    "id": "brazil-ac-votuporanguense",
    "name": "Votuporanguense",
    "country": "Brazil",
    "city": "Votuporanga",
    "stadium": "Estádio Municipal de Sorocaba Walter Ribeiro (CIC)",
    "latitude": -20.406368236799132,
    "longitude": -49.964798920676955,
    "capacity": 8145,
    "tier": "professional"
  },
  {
    "id": "brazil-ca-linense",
    "name": "Linense",
    "country": "Brazil",
    "city": "Lins",
    "stadium": "Estádio Municipal Gilberto Siqueira Lopes",
    "latitude": -21.66664150543427,
    "longitude": -49.76328318833799,
    "capacity": 15770,
    "tier": "professional"
  },
  {
    "id": "brazil-ca-juventus-sp",
    "name": "Juventus-SP",
    "country": "Brazil",
    "city": "São Paulo",
    "stadium": "Estádio Conde Rodolfo Crespi",
    "latitude": -23.553134718561953,
    "longitude": -46.60483234412307,
    "capacity": 5180,
    "tier": "professional"
  },
  {
    "id": "brazil-osasco-sporting",
    "name": "Osasco Sporting",
    "country": "Brazil",
    "city": "Osasco",
    "stadium": "Estádio Municipal José Liberatti",
    "latitude": -23.51206675524416,
    "longitude": -46.77604783063247,
    "capacity": 17430,
    "tier": "professional"
  },
  {
    "id": "brazil-gremio-prudente",
    "name": "Grêmio Prudente",
    "country": "Brazil",
    "city": "Presidente Prudente",
    "stadium": "Estádio Paulo Constantino (Prudentão)",
    "latitude": -22.098370847467287,
    "longitude": -51.4148935306577,
    "capacity": 45954,
    "tier": "professional"
  },
  {
    "id": "brazil-ec-santo-andre",
    "name": "Santo André",
    "country": "Brazil",
    "city": "Santo André",
    "stadium": "Estádio Bruno José Daniel",
    "latitude": -23.669687979565158,
    "longitude": -46.50984787295696,
    "capacity": 12000,
    "tier": "professional"
  },
  {
    "id": "brazil-sao-jose-ec",
    "name": "São José-SP",
    "country": "Brazil",
    "city": "São José dos Campos",
    "stadium": "Estádio Martins Pereira",
    "latitude": -23.18830051261262,
    "longitude": -45.870005372966084,
    "capacity": 16500,
    "tier": "professional"
  },
  {
    "id": "brazil-ec-taubate",
    "name": "Taubaté",
    "country": "Brazil",
    "city": "Taubaté",
    "stadium": "Estádio Joaquim de Morais Filho",
    "latitude": -23.02788487059939,
    "longitude": -45.57033587296897,
    "capacity": 9600,
    "tier": "professional"
  },
  {
    "id": "brazil-sertaozinho-fc",
    "name": "Sertãozinho",
    "country": "Brazil",
    "city": "Sertãozinho",
    "stadium": "Estádio Municipal Frederico Dalmaso",
    "latitude": -21.143459868809842,
    "longitude": -47.991855057657325,
    "capacity": 7860,
    "tier": "professional"
  },
  {
    "id": "brazil-atletico-monte-azul",
    "name": "Monte Azul",
    "country": "Brazil",
    "city": "Monte Azul Paulista",
    "stadium": "Estádio Otacília Patrício Arroyo",
    "latitude": -20.90331257204607,
    "longitude": -48.645865688351,
    "capacity": 13100,
    "tier": "professional"
  },
  {
    "id": "brazil-marilia-ac",
    "name": "Marília",
    "country": "Brazil",
    "city": "Marília",
    "stadium": "Estádio Municipal Bento de Abreu Sampaio Vidal - Abreuzão",
    "latitude": -22.21944553342664,
    "longitude": -49.94000310181943,
    "capacity": 19800,
    "tier": "professional"
  },
  {
    "id": "brazil-desportivo-brasil",
    "name": "Desportivo Brasil",
    "country": "Brazil",
    "city": "Porto Feliz",
    "stadium": "Estádio Municipal Ernesto Rocco",
    "latitude": -23.180867213805982,
    "longitude": -47.53634107296624,
    "capacity": 6160,
    "tier": "professional"
  },
  {
    "id": "brazil-desportivo-brasil",
    "name": "Desportivo Brasil",
    "country": "Brazil",
    "city": "Porto Feliz",
    "stadium": "Estádio Municipal Ernesto Rocco",
    "latitude": -23.180867213805982,
    "longitude": -47.53634107296624,
    "capacity": 6160,
    "tier": "professional"
  },
  {
    "id": "brazil-catanduva-fc",
    "name": "Catanduva",
    "country": "Brazil",
    "city": "Catanduva",
    "stadium": "Estádio Municipal Silvio Salles",
    "latitude": -21.152516079203732,
    "longitude": -48.97594310183834,
    "capacity": 16444,
    "tier": "professional"
  },
  {
    "id": "brazil-rio-branco-ec-sp",
    "name": "Rio Branco-SP",
    "country": "Brazil",
    "city": "Americana",
    "stadium": "Estádio Décio Vitta",
    "latitude": -22.734108568845393,
    "longitude": -47.34786961530185,
    "capacity": 16300,
    "tier": "professional"
  },
  {
    "id": "brazil-uniao-sao-joao-araras",
    "name": "União São João",
    "country": "Brazil",
    "city": "Araras",
    "stadium": "Estádio Doutor Hermínio Ometto",
    "latitude": -22.358029433800816,
    "longitude": -47.34117784414483,
    "capacity": 22100,
    "tier": "professional"
  },
  {
    "id": "brazil-se-itapirense",
    "name": "Itapirense",
    "country": "Brazil",
    "city": "Itapira",
    "stadium": "Estádio Municipal Coronel Francisco Vieira",
    "latitude": -22.43959700076598,
    "longitude": -46.83094033065186,
    "capacity": 7000,
    "tier": "professional"
  },
  {
    "id": "brazil-rio-preto-ec",
    "name": "Rio Preto",
    "country": "Brazil",
    "city": "São José do Rio Preto",
    "stadium": "Estádio Anísio Haddad",
    "latitude": -20.83448191673789,
    "longitude": -49.4011164153355,
    "capacity": 14126,
    "tier": "professional"
  },
  {
    "id": "brazil-uniao-suzano-ac",
    "name": "União Suzano",
    "country": "Brazil",
    "city": "Suzano",
    "stadium": "Estadio Municipal Francisco Marques Figueira",
    "latitude": -23.554660550610098,
    "longitude": -46.297822001795446,
    "capacity": 14126,
    "tier": "professional"
  },
  {
    "id": "brazil-ec-xv-de-jau",
    "name": "XV de Jaú",
    "country": "Brazil",
    "city": "Jaú",
    "stadium": "Estádio Zezinho Magalhães",
    "latitude": -22.296973380106234,
    "longitude": -48.571629501818094,
    "capacity": 12978,
    "tier": "professional"
  },
  {
    "id": "brazil-ac-francana",
    "name": "Francana",
    "country": "Brazil",
    "city": "Franca",
    "stadium": "Estádio Municipal Doutor Lancha Filho",
    "latitude": -20.53491278012226,
    "longitude": -47.3852780883571,
    "capacity": 10400,
    "tier": "professional"
  },
  {
    "id": "brazil-ec-sao-bernardo",
    "name": "EC São Bernardo",
    "country": "Brazil",
    "city": "São Bernardo do Campo",
    "stadium": "Estádio Baetão",
    "latitude": -23.698958069524828,
    "longitude": -46.54229564827401,
    "capacity": 6315,
    "tier": "professional"
  },
  {
    "id": "brazil-bandeirante-ec",
    "name": "Bandeirante",
    "country": "Brazil",
    "city": "Birigui",
    "stadium": "Estádio Municipal Pedro Marin Berbel",
    "latitude": -21.268722209108223,
    "longitude": -50.33194144601717,
    "capacity": 8240,
    "tier": "professional"
  },
  {
    "id": "brazil-comercial-fc-sp",
    "name": "Comercial-SP",
    "country": "Brazil",
    "city": "Ribeirão Preto",
    "stadium": "Estádio Doutor Francisco de Palma Travassos",
    "latitude": -21.18652122192052,
    "longitude": -47.788692544165244,
    "capacity": 18277,
    "tier": "professional"
  },
  {
    "id": "brazil-lemense-fc",
    "name": "Lemense",
    "country": "Brazil",
    "city": "Leme",
    "stadium": "Estádio Bruno Lazzarini",
    "latitude": -22.17721866359463,
    "longitude": -47.38862531531175,
    "capacity": 7018,
    "tier": "professional"
  },
  {
    "id": "brazil-ae-aracatuba",
    "name": "Araçatuba",
    "country": "Brazil",
    "city": "Araçatuba",
    "stadium": "Estádio Municipal Adhemar de Barros",
    "latitude": -21.217435260068562,
    "longitude": -50.44429585765638,
    "capacity": 11284,
    "tier": "professional"
  },
  {
    "id": "brazil-gremio-audax-sp",
    "name": "Audax-SP",
    "country": "Brazil",
    "city": "Osasco",
    "stadium": "Estádio Municipal José Liberatti",
    "latitude": -23.512086431414296,
    "longitude": -46.77601564412397,
    "capacity": 17430,
    "tier": "professional"
  },
  {
    "id": "brazil-barretos-ec",
    "name": "Barretos",
    "country": "Brazil",
    "city": "Barretos",
    "stadium": "Estádio Antônio Gomes Martins (Fortaleza)",
    "latitude": -20.567851161840217,
    "longitude": -48.56367408650401,
    "capacity": 13007,
    "tier": "professional"
  },
  {
    "id": "brazil-colorado-caieiras-fc",
    "name": "Colorado Caieiras",
    "country": "Brazil",
    "city": "Caieiras",
    "stadium": "Estádio Municipal Carlos Ferracini",
    "latitude": -23.365371237763462,
    "longitude": -46.743433672962695,
    "capacity": 6195,
    "tier": "professional"
  },
  {
    "id": "brazil-inter-de-bebedouro",
    "name": "Inter de Bebedouro",
    "country": "Brazil",
    "city": "Bebedouro",
    "stadium": "Estádio Municipal Sócrates Stamato",
    "latitude": -20.941946378850744,
    "longitude": -48.493847588350306,
    "capacity": 15300,
    "tier": "professional"
  },
  {
    "id": "brazil-jabaquara-ac",
    "name": "Jabaquara",
    "country": "Brazil",
    "city": "Santos",
    "stadium": "Estádio Espanha",
    "latitude": -23.945592708443137,
    "longitude": -46.364044172137795,
    "capacity": 8031,
    "tier": "professional"
  },
  {
    "id": "brazil-clube-atletico-joseense",
    "name": "Joseense",
    "country": "Brazil",
    "city": "São José dos Campos",
    "stadium": "Estádio Martins Pereira",
    "latitude": -23.189138789761635,
    "longitude": -45.86986589809598,
    "capacity": 8031,
    "tier": "professional"
  },
  {
    "id": "brazil-se-matonense",
    "name": "Matonense",
    "country": "Brazil",
    "city": "Matão",
    "stadium": "Estádio Doutor Hudson Buck Ferreira",
    "latitude": -21.607126156262005,
    "longitude": -48.36651160183061,
    "capacity": 12010,
    "tier": "professional"
  },
  {
    "id": "brazil-nacional-ac",
    "name": "Nacional-SP",
    "country": "Brazil",
    "city": "São Paulo",
    "stadium": "Estádio Nicolau Alayon",
    "latitude": -23.5178947506074,
    "longitude": -46.685256030632054,
    "capacity": 10723,
    "tier": "professional"
  },
  {
    "id": "brazil-paulista-fc",
    "name": "Paulista",
    "country": "Brazil",
    "city": "Jundiaí",
    "stadium": "Estádio Doutor Jayme Cintra",
    "latitude": -23.18798708485028,
    "longitude": -46.8602675171468,
    "capacity": 13905,
    "tier": "professional"
  },
  {
    "id": "brazil-ca-penapolense",
    "name": "Penapolense",
    "country": "Brazil",
    "city": "Penápolis",
    "stadium": "Estádio Municipal Tenente Carriço",
    "latitude": -21.42196490276856,
    "longitude": -50.06895651532511,
    "capacity": 8769,
    "tier": "professional"
  },
  {
    "id": "brazil-sao-caetano-futebol",
    "name": "São Caetano",
    "country": "Brazil",
    "city": "São Caetano do Sul",
    "stadium": "Estádio Municipal Anacleto Campanella",
    "latitude": -23.629925010585616,
    "longitude": -46.559819359466275,
    "capacity": 16745,
    "tier": "professional"
  },
  {
    "id": "brazil-gremio-desportivo-sao-carlense",
    "name": "São-Carlense",
    "country": "Brazil",
    "city": "São Carlos",
    "stadium": "Estádio Municipal Prof. Luís Augusto de Oliveira (Luisão)",
    "latitude": -22.031330026458903,
    "longitude": -47.90177837298686,
    "capacity": 10000,
    "tier": "professional"
  },
  {
    "id": "brazil-ca-taquaritinga",
    "name": "Taquaritinga",
    "country": "Brazil",
    "city": "Taquaritinga",
    "stadium": "Taquarão",
    "latitude": -21.399796135215304,
    "longitude": -48.49341898965793,
    "capacity": 18805,
    "tier": "professional"
  },
  {
    "id": "brazil-uniao-barbarense-fc",
    "name": "União Barbarense",
    "country": "Brazil",
    "city": "Santa Bárbara d'Oeste",
    "stadium": "Estádio Antonio Lins Ribeiro Guimarães",
    "latitude": -22.755156004026624,
    "longitude": -47.42459297297364,
    "capacity": 14913,
    "tier": "professional"
  },
  {
    "id": "brazil-tanabi-ec",
    "name": "Tanabi",
    "country": "Brazil",
    "city": "Santa Bárbara d'Oeste",
    "stadium": "Estádio Municipal Alberto Victolo",
    "latitude": -20.630024149848776,
    "longitude": -49.65256742882989,
    "capacity": 8400,
    "tier": "professional"
  },
  {
    "id": "brazil-vocem-espore-mariano",
    "name": "VOCEM",
    "country": "Brazil",
    "city": "Assis",
    "stadium": "Estádio Municipal Antônio Viana Silva (Tonicão)",
    "latitude": -22.65836916042791,
    "longitude": -50.433389659484355,
    "capacity": 8525,
    "tier": "professional"
  },
  {
    "id": "brazil-ec-ecus",
    "name": "ECUS",
    "country": "Brazil",
    "city": "Assis",
    "stadium": "Estadio Municipal Francisco Marques Figueira",
    "latitude": -23.555280147923842,
    "longitude": -46.29780054412313,
    "capacity": 3445,
    "tier": "professional"
  },
  {
    "id": "brazil-ca-assisense",
    "name": "Assisense",
    "country": "Brazil",
    "city": "Assis",
    "stadium": "Estádio Municipal Antônio Viana Silva (Tonicão)",
    "latitude": -22.659121616622798,
    "longitude": -50.433443305130744,
    "capacity": 8525,
    "tier": "professional"
  },
  {
    "id": "brazil-batatais-fc",
    "name": "Batatais",
    "country": "Brazil",
    "city": "Batatais",
    "stadium": "Estádio Dr. Osvaldo Scatena",
    "latitude": -20.896094725693867,
    "longitude": -47.586093389835185,
    "capacity": 7500,
    "tier": "professional"
  },
  {
    "id": "brazil-associacao-atletica-flamengo-sp",
    "name": "Flamengo-SP",
    "country": "Brazil",
    "city": "Guarulhos",
    "stadium": "Estádio Antônio Soares de Oliveira",
    "latitude": -23.470364260961095,
    "longitude": -46.552068043735574,
    "capacity": 6235,
    "tier": "professional"
  },
  {
    "id": "brazil-associacao-desportiva-guarulhos",
    "name": "Guarulhos",
    "country": "Brazil",
    "city": "Guarulhos",
    "stadium": "Estádio Antônio Soares de Oliveira",
    "latitude": -23.47080711415064,
    "longitude": -46.5521646032572,
    "capacity": 6235,
    "tier": "professional"
  },
  {
    "id": "brazil-independente-de-limeira",
    "name": "Independente de Limeira",
    "country": "Brazil",
    "city": "Limeira",
    "stadium": "Estádio Comendador Agostinho Prada (Pradão)",
    "latitude": -22.574173643059577,
    "longitude": -47.412362343761075,
    "capacity": 9483,
    "tier": "professional"
  },
  {
    "id": "brazil-academia-desportiva-manthiqueira",
    "name": "Manthiqueira",
    "country": "Brazil",
    "city": "Guaratinguetá",
    "stadium": "Estádio Municipal Professor Dario Rodrigues Leite",
    "latitude": -22.808336801397445,
    "longitude": -45.18570543026163,
    "capacity": 15769,
    "tier": "professional"
  },
  {
    "id": "brazil-maua-fc",
    "name": "Mauá",
    "country": "Brazil",
    "city": "Mauá",
    "stadium": "Estádio Municipal Pedro Benedetti",
    "latitude": -23.668760825670173,
    "longitude": -46.47080145907288,
    "capacity": 8567,
    "tier": "professional"
  },
  {
    "id": "brazil-olimpia-sp",
    "name": "Olímpia-SP",
    "country": "Brazil",
    "city": "Olímpia",
    "stadium": "Estádio Maria Tereza Breda",
    "latitude": -20.734588405821345,
    "longitude": -48.91424163031778,
    "capacity": 15022,
    "tier": "professional"
  },
  {
    "id": "brazil-associacao-esportiva-santacruzense",
    "name": "Santacruzense",
    "country": "Brazil",
    "city": "Santa Cruz do Rio Pardo",
    "stadium": "Estádio Municipal Leônidas Camarinha",
    "latitude": -22.89521600748971,
    "longitude": -49.62517707443795,
    "capacity": 7500,
    "tier": "professional"
  },
  {
    "id": "brazil-sao-carlos-fc",
    "name": "São Carlos",
    "country": "Brazil",
    "city": "São Carlos",
    "stadium": "Estádio Municipal Prof. Luís Augusto de Oliveira (Luisão)",
    "latitude": -22.032026203122765,
    "longitude": -47.90145650938973,
    "capacity": 10000,
    "tier": "professional"
  },
  {
    "id": "brazil-tupa-fc",
    "name": "Tupã",
    "country": "Brazil",
    "city": "Tupã",
    "stadium": "Estádio Municipal Alonso Carvalho Braga",
    "latitude": -21.933688591826154,
    "longitude": -50.519678474464676,
    "capacity": 10000,
    "tier": "professional"
  },
  {
    "id": "brazil-uniao-mogi",
    "name": "União Mogi",
    "country": "Brazil",
    "city": "Mogi das Cruzes",
    "stadium": "Estádio Municipal Francisco Ribeiro Nogueira",
    "latitude": -23.51760270213837,
    "longitude": -46.20611060325586,
    "capacity": 14383,
    "tier": "professional"
  },
  {
    "id": "brazil-americano-fc",
    "name": "Americano",
    "country": "Brazil",
    "city": "Campos dos Goytacazes",
    "stadium": "Estádio Godofredo Cruz",
    "latitude": -21.670618287284444,
    "longitude": -41.30840200330753,
    "capacity": 12300,
    "tier": "professional"
  },
  {
    "id": "brazil-araruama-fc",
    "name": "Araruama",
    "country": "Brazil",
    "city": "Araruama",
    "stadium": "Estádio Lourival Gomes",
    "latitude": -22.833401905663383,
    "longitude": -42.5963664456041,
    "capacity": 1800,
    "tier": "professional"
  },
  {
    "id": "brazil-audax-rio",
    "name": "Audax Rio",
    "country": "Brazil",
    "city": "Saquarema",
    "stadium": "Estádio Elcyr Resende de Mendonça",
    "latitude": -22.894811557735917,
    "longitude": -42.47681741676659,
    "capacity": 8000,
    "tier": "professional"
  },
  {
    "id": "brazil-bangu-atletico-clube",
    "name": "Bangu",
    "country": "Brazil",
    "city": "Rio de Janeiro",
    "stadium": "Moça Bonita",
    "latitude": -22.872341815186402,
    "longitude": -43.45662163211006,
    "capacity": 9500,
    "tier": "professional"
  },
  {
    "id": "brazil-associacao-desportiva-cabofriense",
    "name": "Cabofriense",
    "country": "Brazil",
    "city": "Cabo Frio",
    "stadium": "Correão",
    "latitude": -22.890134051946763,
    "longitude": -42.040073559095376,
    "capacity": 4200,
    "tier": "professional"
  },
  {
    "id": "brazil-duque-de-caxias-fc",
    "name": "Duque de Caxias",
    "country": "Brazil",
    "city": "Duque de Caxias",
    "stadium": "Estádio Romário de Souza Faria (Marrentão)",
    "latitude": -22.585464659287915,
    "longitude": -43.30518658793946,
    "capacity": 3334,
    "tier": "professional"
  },
  {
    "id": "brazil-olaria-atletico-clube",
    "name": "Olaria",
    "country": "Brazil",
    "city": "Rio de Janeiro",
    "stadium": "Estádio Antônio Mourão Vieira Filho (Rua Bariri)",
    "latitude": -22.84110086621551,
    "longitude": -43.26665327258944,
    "capacity": 8300,
    "tier": "professional"
  },
  {
    "id": "brazil-af-perolas-negras",
    "name": "Pérolas Negras",
    "country": "Brazil",
    "city": "Piraí",
    "stadium": "Estádio do Trabalhador",
    "latitude": -22.46359558039457,
    "longitude": -44.455976632449065,
    "capacity": 7400,
    "tier": "professional"
  },
  {
    "id": "brazil-petropolis-fc",
    "name": "Petrópolis",
    "country": "Brazil",
    "city": "Petrópolis",
    "stadium": "Estádio Lourival Gomes de Almeida",
    "latitude": -22.83335246518948,
    "longitude": -42.59646300512573,
    "capacity": 4315,
    "tier": "professional"
  },
  {
    "id": "brazil-resende-fc",
    "name": "Resende",
    "country": "Brazil",
    "city": "Resende",
    "stadium": "Estádio do Trabalhador",
    "latitude": -22.463993186536914,
    "longitude": -44.45579596307814,
    "capacity": 7400,
    "tier": "professional"
  },
  {
    "id": "brazil-sao-gonçalo-ec",
    "name": "São Gonçalo EC",
    "country": "Brazil",
    "city": "São Gonçalo",
    "stadium": "Estádio de Los Larios",
    "latitude": -22.610647803892938,
    "longitude": -43.330693030267334,
    "capacity": 6300,
    "tier": "professional"
  },
  {
    "id": "brazil-sao-raimundo-am",
    "name": "São Raimundo-AM",
    "country": "Brazil",
    "city": "Manaus",
    "stadium": "Estádio Ismael Benigno",
    "latitude": -3.121468238500559,
    "longitude": -60.03730347321438,
    "capacity": 11000,
    "tier": "professional"
  },
  {
    "id": "brazil-princesa-do-solimoes-am",
    "name": "Princesa do Solimões",
    "country": "Brazil",
    "city": "Manacapuru",
    "stadium": "Estádio Olímpico Municipal Gilberto Mestrinho",
    "latitude": -3.2832589058568775,
    "longitude": -60.63165227321308,
    "capacity": 15000,
    "tier": "professional"
  },
  {
    "id": "brazil-parintins-fc",
    "name": "Parintins",
    "country": "Brazil",
    "city": "Parintins",
    "stadium": "Estádio Francisco Garcia",
    "latitude": -2.700064709551263,
    "longitude": -59.69952492903598,
    "capacity": 4000,
    "tier": "professional"
  },
  {
    "id": "brazil-itacoatiara-fc",
    "name": "Itacoatiara",
    "country": "Brazil",
    "city": "Itacoatiara",
    "stadium": "Estádio Floro de Mendonça",
    "latitude": -3.1355500285929403,
    "longitude": -58.443658073214195,
    "capacity": 5000,
    "tier": "professional"
  },
  {
    "id": "brazil-aa-coruripe-al",
    "name": "Coruripe",
    "country": "Brazil",
    "city": "Coruripe",
    "stadium": "Estádio Gerson Amaral",
    "latitude": -10.118187012480076,
    "longitude": -36.181588657810785,
    "capacity": 7000,
    "tier": "professional"
  },
  {
    "id": "brazil-ec-cruzeiro-al",
    "name": "Cruzeiro-AL",
    "country": "Brazil",
    "city": "Arapiraca",
    "stadium": "Estádio Municipal Coaracy da Mata Fonseca",
    "latitude": -9.746676110877052,
    "longitude": -36.66663540199552,
    "capacity": 17000,
    "tier": "professional"
  },
  {
    "id": "brazil-murici-fc",
    "name": "Murici",
    "country": "Brazil",
    "city": "Murici",
    "stadium": "Estádio José Gomes da Costa",
    "latitude": -9.314888368826772,
    "longitude": -35.94411268665499,
    "capacity": 3829,
    "tier": "professional"
  },
  {
    "id": "brazil-sc-penedense",
    "name": "Penedense",
    "country": "Brazil",
    "city": "Penedo",
    "stadium": "Estádio Alfredo Leahy",
    "latitude": -10.284883035166303,
    "longitude": -36.57174357500689,
    "capacity": 6000,
    "tier": "professional"
  },
  {
    "id": "brazil-santa-cruz-sc-ac",
    "name": "Santa Cruz-AC",
    "country": "Brazil",
    "city": "Rio Branco",
    "stadium": "Arena da Floresta",
    "latitude": -10.00281942029402,
    "longitude": -67.80456823772198,
    "capacity": 13586,
    "tier": "professional"
  },
  {
    "id": "brazil-sao-francisco-fc-ac",
    "name": "São Francisco-AC",
    "country": "Brazil",
    "city": "Rio Branco",
    "stadium": "Estádio Antônio Aquino Lopes (Tonicão)",
    "latitude": -9.999528341309883,
    "longitude": -67.8495074731568,
    "capacity": 1000,
    "tier": "professional"
  },
  {
    "id": "brazil-ad-vasco-da-gama-ac",
    "name": "Vasco-AC",
    "country": "Brazil",
    "city": "Rio Branco",
    "stadium": "Arena da Floresta",
    "latitude": -10.001762843672099,
    "longitude": -67.80434293216257,
    "capacity": 13586,
    "tier": "professional"
  },
  {
    "id": "brazil-rio-branco-fc-ac",
    "name": "Rio Branco-AC",
    "country": "Brazil",
    "city": "Rio Branco",
    "stadium": "Estádio José de Melo",
    "latitude": -9.970081287109034,
    "longitude": -67.80770974432086,
    "capacity": 6000,
    "tier": "professional"
  },
  {
    "id": "brazil-adesg-ac",
    "name": "Adesg",
    "country": "Brazil",
    "city": "Senador Guiomard",
    "stadium": "Estádio Nabor Júnior (Naborzão)",
    "latitude": -10.148935514567073,
    "longitude": -67.74092867315501,
    "capacity": 2000,
    "tier": "professional"
  },
  {
    "id": "brazil-desportivo-alianca-al",
    "name": "Desportivo Aliança",
    "country": "Brazil",
    "city": "Barra de Santo Antônio",
    "stadium": "Estádio O Tadeuzão",
    "latitude": -7.0827064944956755,
    "longitude": -35.23363661736588,
    "capacity": 300,
    "tier": "professional"
  },
  {
    "id": "brazil-desportivo-alianca-al",
    "name": "Dimensão Saúde",
    "country": "Brazil",
    "city": "Capela",
    "stadium": "Estádio Manoel Moreira",
    "latitude": -18.721908381776604,
    "longitude": -39.85568180187831,
    "capacity": 3500,
    "tier": "professional"
  },
  {
    "id": "brazil-ce-miguelense-al",
    "name": "Miguelense",
    "country": "Brazil",
    "city": "São Miguel dos Campos",
    "stadium": "Estádio Municipal Manoel Ferreira de Amorim (Ferreirão)",
    "latitude": -9.79310521283192,
    "longitude": -36.10059977315884,
    "capacity": 15000,
    "tier": "professional"
  },
  {
    "id": "brazil-zumbi-ec-al",
    "name": "Zumbi",
    "country": "Brazil",
    "city": "União dos Palmares",
    "stadium": "Orlandão",
    "latitude": -9.15610406399597,
    "longitude": -36.02381560200156,
    "capacity": 5000,
    "tier": "professional"
  },
  {
    "id": "brazil-ec-macapa-al",
    "name": "Macapá",
    "country": "Brazil",
    "city": "Macapá",
    "stadium": "Estádio Municipal Glicério de Souza Marques",
    "latitude": 0.03333713248147585,
    "longitude": -51.0634107732307,
    "capacity": 4984,
    "tier": "professional"
  },
  {
    "id": "brazil-ypiranga-al",
    "name": "Ypiranga-AP",
    "country": "Brazil",
    "city": "Macapá",
    "stadium": "Zerão",
    "latitude": 0.00030976191313356223,
    "longitude": -51.08051516581792,
    "capacity": 13680,
    "tier": "professional"
  },
  {
    "id": "brazil-santos-fc-al",
    "name": "Santos-AP",
    "country": "Brazil",
    "city": "Macapá",
    "stadium": "Estádio Augusto Antunes",
    "latitude": -0.05913299450293599,
    "longitude": -51.158014659738775,
    "capacity": 0,
    "tier": "professional"
  },
  {
    "id": "brazil-sao-jose-al",
    "name": "São José-AP",
    "country": "Brazil",
    "city": "Macapá",
    "stadium": "Zerão",
    "latitude": 0.0008891190490560591,
    "longitude": -51.08074047137733,
    "capacity": 13680,
    "tier": "professional"
  },
  {
    "id": "brazil-independente-ec-ap",
    "name": "Independente-AP",
    "country": "Brazil",
    "city": "Macapá",
    "stadium": "Zerão",
    "latitude": 0.00043850794334987015,
    "longitude": -51.08114816715151,
    "capacity": 13680,
    "tier": "professional"
  },
  {
    "id": "brazil-atletico-ba",
    "name": "Atlético-BA",
    "country": "Brazil",
    "city": "Alagoinhas",
    "stadium": "Estádio Municipal Antônio de Figueiredo Carneiro - Carneirão",
    "latitude": -12.140177165763076,
    "longitude": -38.41504777313266,
    "capacity": 16000,
    "tier": "professional"
  },
  {
    "id": "brazil-jequie-ba",
    "name": "Jequié",
    "country": "Brazil",
    "city": "Jequié",
    "stadium": "Estádio Municipal Waldomiro Borges (Waldomirão)",
    "latitude": -13.875666687275656,
    "longitude": -40.084474059619986,
    "capacity": 3000,
    "tier": "professional"
  },
  {
    "id": "brazil-bahia-de-feira-ba",
    "name": "Bahia de Feira",
    "country": "Brazil",
    "city": "Feira de Santana",
    "stadium": "Arena Cajueiro",
    "latitude": -12.275892101075561,
    "longitude": -38.93635283080374,
    "capacity": 7000,
    "tier": "professional"
  },
  {
    "id": "brazil-barcelona-de-ilheus-ba",
    "name": "Barcelona de Ilhéus",
    "country": "Brazil",
    "city": "Ilhéus",
    "stadium": "Estadio Mario Pessoa",
    "latitude": -14.790693312366882,
    "longitude": -39.03401381728014,
    "capacity": 10000,
    "tier": "professional"
  },
  {
    "id": "brazil-galicia-ec-ba",
    "name": "Galícia",
    "country": "Brazil",
    "city": "Ilhéus",
    "stadium": "Arena Parque Santiago",
    "latitude": -12.983796614714255,
    "longitude": -38.47306014428653,
    "capacity": 8000,
    "tier": "professional"
  },
  {
    "id": "brazil-samambaia-fc-df",
    "name": "Samambaia",
    "country": "Brazil",
    "city": "Samambaia",
    "stadium": "Estádio Joaquim Domingos Roriz (Rorizão)",
    "latitude": -15.879382512854002,
    "longitude": -48.088758430756734,
    "capacity": 6000,
    "tier": "professional"
  },
  {
    "id": "brazil-real-brasilia-fc-df",
    "name": "Real Brasília",
    "country": "Brazil",
    "city": "Brasília",
    "stadium": "Estádio Ciro Machado do Espírito Santo (Defelê)",
    "latitude": -15.79085207353877,
    "longitude": -47.85258090192194,
    "capacity": 6875,
    "tier": "professional"
  },
  {
    "id": "brazil-aruc-df",
    "name": "ARUC",
    "country": "Brazil",
    "city": "Brasília",
    "stadium": "Estádio Ciro Machado do Espírito Santo (Defelê)",
    "latitude": -15.791141143797718,
    "longitude": -47.85223757916475,
    "capacity": 6875,
    "tier": "professional"
  },
  {
    "id": "brazil-paranoa-ec-df",
    "name": "Paranoá",
    "country": "Brazil",
    "city": "Paranoá",
    "stadium": "Estádio JK",
    "latitude": -15.779245530212183,
    "longitude": -47.78620998843036,
    "capacity": 4000,
    "tier": "professional"
  },
  {
    "id": "brazil-sobradinho-ec-df",
    "name": "Sobradinho",
    "country": "Brazil",
    "city": "Sobradinho",
    "stadium": "Estádio Augustinho Lima",
    "latitude": -15.652906989856294,
    "longitude": -47.78498503075946,
    "capacity": 10000,
    "tier": "professional"
  },
  {
    "id": "brazil-brasilia-fc-df",
    "name": "Brasília",
    "country": "Brazil",
    "city": "Brasília",
    "stadium": "Estádio Nacional Mané Garrincha",
    "latitude": -15.783353498349241,
    "longitude": -47.899137313560296,
    "capacity": 63349,
    "tier": "professional"
  },
  {
    "id": "brazil-serra-fc-es",
    "name": "Serra",
    "country": "Brazil",
    "city": "Serra",
    "stadium": "Estádio Roberto Siqueira Costa (Robertão)",
    "latitude": -20.12746142978218,
    "longitude": -40.30426002883834,
    "capacity": 2000,
    "tier": "professional"
  },
  {
    "id": "brazil-desportiva-ferroviaria-es",
    "name": "Desportiva Ferroviária",
    "country": "Brazil",
    "city": "Cariacica",
    "stadium": "Estádio Engenheiro Alencar Araripe",
    "latitude": -20.333860376097107,
    "longitude": -40.356105973015794,
    "capacity": 7700,
    "tier": "professional"
  },
  {
    "id": "brazil-rio-branco-vn-es",
    "name": "Rio Branco VN",
    "country": "Brazil",
    "city": "Cariacica",
    "stadium": "Estádio Olímpio Perim",
    "latitude": -20.33802012153682,
    "longitude": -41.13080718650748,
    "capacity": 2100,
    "tier": "professional"
  },
  {
    "id": "brazil-vilavelhense-es",
    "name": "Vilavelhense",
    "country": "Brazil",
    "city": "Vila Velha",
    "stadium": "Estádio Manoel Araújo de Oliveira",
    "latitude": -20.34024128527249,
    "longitude": -40.32026911719682,
    "capacity": 1000,
    "tier": "professional"
  },
  {
    "id": "brazil-porto-vitoria-es",
    "name": "Porto Vitória",
    "country": "Brazil",
    "city": "Vitória",
    "stadium": "Estádio Estadual Kleber José de Andrade",
    "latitude": -20.33268857299059,
    "longitude": -40.38520738836072,
    "capacity": 2000,
    "tier": "professional"
  },
  {
    "id": "brazil-capixaba-es",
    "name": "Capixaba",
    "country": "Brazil",
    "city": "Vila Valério",
    "stadium": "Estádio Municipal José Maria Mantovanelli",
    "latitude": -18.993406887930103,
    "longitude": -40.38590831536568,
    "capacity": 2500,
    "tier": "professional"
  },
  {
    "id": "brazil-forte-es",
    "name": "Forte",
    "country": "Brazil",
    "city": "Castelo",
    "stadium": "Estádio Emílio Nemer",
    "latitude": -20.60868440482987,
    "longitude": -41.20272898835607,
    "capacity": 2000,
    "tier": "professional"
  },
  {
    "id": "brazil-brusque-fc-sc",
    "name": "Brusque",
    "country": "Brazil",
    "city": "Brusque",
    "stadium": "Estádio Augusto Bauer",
    "latitude": -27.101281264785243,
    "longitude": -48.91608583241578,
    "capacity": 6000,
    "tier": "professional"
  },
  {
    "id": "brazil-camboriu-fc-sc",
    "name": "Camboriú",
    "country": "Brazil",
    "city": "Camboriú",
    "stadium": "Estádio Municipal Roberto Santos Garcia",
    "latitude": -27.021742466772665,
    "longitude": -48.648370030564394,
    "capacity": 3500,
    "tier": "professional"
  },
  {
    "id": "brazil-carlos-renaux-sc",
    "name": "Carlos Renaux",
    "country": "Brazil",
    "city": "Brusque",
    "stadium": "Estádio Augusto Bauer",
    "latitude": -27.101271713947078,
    "longitude": -48.915967815217996,
    "capacity": 5000,
    "tier": "professional"
  },
  {
    "id": "brazil-concordia-sc",
    "name": "Concórdia",
    "country": "Brazil",
    "city": "Concórdia",
    "stadium": "Estádio Domingos Machado De Lima",
    "latitude": -27.227601455925814,
    "longitude": -52.01776674590435,
    "capacity": 5000,
    "tier": "professional"
  },
  {
    "id": "brazil-quixada-fc-ce",
    "name": "Quixadá",
    "country": "Brazil",
    "city": "Quixadá",
    "stadium": "Estádio Abilhão",
    "latitude": -4.983289941091218,
    "longitude": -39.018643057856906,
    "capacity": 5000,
    "tier": "professional"
  },
  {
    "id": "brazil-maranguape-fc-ce",
    "name": "Maranguape",
    "country": "Brazil",
    "city": "Maranguape",
    "stadium": "Estádio Moraisão",
    "latitude": -3.885105125023949,
    "longitude": -38.67713698670059,
    "capacity": 5000,
    "tier": "professional"
  },
  {
    "id": "brazil-centro-oeste-fc-go",
    "name": "Centro Oeste",
    "country": "Brazil",
    "city": "Senador Canedo",
    "stadium": "Estádio Jaime Guerra",
    "latitude": -16.402454748336982,
    "longitude": -49.21822727307687,
    "capacity": 0,
    "tier": "professional"
  },
  {
    "id": "brazil-jataiense-go",
    "name": "Jataiense",
    "country": "Brazil",
    "city": "Jataí",
    "stadium": "Estádio Municipal Jerônimo Ferreira Fraga",
    "latitude": -17.862391903303863,
    "longitude": -51.728586759563704,
    "capacity": 17000,
    "tier": "professional"
  },
  {
    "id": "brazil-anapolina-go",
    "name": "Anapolina",
    "country": "Brazil",
    "city": "Anápolis",
    "stadium": "Estádio Jonas Duarte",
    "latitude": -16.34617568114767,
    "longitude": -48.955533773077654,
    "capacity": 21170,
    "tier": "professional"
  },
  {
    "id": "brazil-tuntum-ec-ma",
    "name": "Tuntum",
    "country": "Brazil",
    "city": "Tuntum",
    "stadium": "Estádio Municipal Dr. Rafael Seabra",
    "latitude": -5.260575972750614,
    "longitude": -44.63984976128356,
    "capacity": 7000,
    "tier": "professional"
  },
  {
    "id": "brazil-luminense-ac-ma",
    "name": "Luminense",
    "country": "Brazil",
    "city": "Paço do Lumiar",
    "stadium": "Arena Charles Müller",
    "latitude": -2.5308006874862867,
    "longitude": -44.15183690602695,
    "capacity": 500,
    "tier": "professional"
  },
  {
    "id": "brazil-itz-sport-ma",
    "name": "ITZ Sport",
    "country": "Brazil",
    "city": "Paço do Lumiar",
    "stadium": "Estádio Frei Epifânio D'Abadia",
    "latitude": -5.525325304588376,
    "longitude": -47.48857207477393,
    "capacity": 10000,
    "tier": "professional"
  }
]